seaport_id,seaport_name,country_id,latitude,longitude
AEAUH,Abu Dhabi,AE,24.4667,54.3667
AEAMU,Abu Musa,AE,25.8667,55.0167
AEARP,Ahmed Bin Rashid Port,AE,25.5333,55.55
AEFJR,Al Fujayrah,AE,25.1167,56.3333
AEJAZ,Al Jazeera Port,AE,25.7167,55.8
AEAJP,Al Jeer Port,AE,26.0333,56.05
AERUW,Ar Ruways,AE,24.1167,52.7333
AEDBP,Dibba,AE,25.6167,56.2667
AEDXB,Dubai,AE,25.25,55.2667
AEFRP,Free Port,AE,25.25,55.25
AEHZP,Hamriya Free Zone Port,AE,25.3,55.3167
AEHSN,Hassyan,AE,24.9,54.9
AEQWE,Jebel Ali Free Zone,AE,25.0,55.05
AEKLB,Kalba,AE,25.0667,56.35
AEKLF,Khor al Fakkan,AE,25.3333,56.35
AEMKH,Mina Khalid,AE,25.35,55.3667
AEKHL,Mina Khalifa/Abu Dhabi,AE,24.8333,54.6667
AEMRP,Mina Rashid Port,AE,25.2667,55.2833
AEMZD,Mina Zayed/Abu Dhabi,AE,24.5167,54.3667
AEAMF,Mussafah,AE,24.3833,54.4833
AERKP,Rak Khor Port,AE,25.8167,55.95
AERMC,Rak Maritime City,AE,25.95,56.05
AERKT,Ras al Khaimah,AE,25.7833,55.95
AERWP,Ruwais Port,AE,24.1,52.7167
AESHJ,Sharjah,AE,25.35,55.3833
AEQIW,Umm al Quwain,AE,25.5833,55.5833
AEYAS,Yas Island,AE,24.4958385,54.6040121
AEZUR,Zirku Island,AE,24.8833,53.0667
AEJEA,Port of Jebel Ali,AE,25.0,55.05
AEAJM,Ajman,AE,25.4052165,55.5136433
AEDAS,Das Island,AE,25.15,52.8833333
AEDUJ,The Palm Jumeirah,AE,25.115,55.1375
AEEND,Esnnad,AE,24.317,54.45
AEHTL,Hulaylah Terminal,AE,25.983,55.933
AEJED,Jebel Dhanna,AE,24.1915137,52.6126027
AEMBS,Mubarras Island,AE,24.5779154,53.3056266
AEMSA,Mina Saqr,AE,25.967,56.067
AEPRA,Port Rashid,AE,25.284755,55.2756505
AERFA,Mirfa,AE,24.0535567,53.4122052
AESID,Sadiyat Island,AE,24.533,54.4
AEULR,Umm Al Nar,AE,24.433,54.5
AFDHD,Dehdadi,AF,36.65,66.9833
AFQLT,Qalat,AF,32.1,66.8833
AFRKH,Torkham,AF,34.1298683,71.0839469
AZKMZ,Khachmaz,AZ,41.4591168,48.8020626
AZQDG,Qaradag,AZ,40.25,49.6
AZSHI,Shirvan,AZ,39.9167,48.9167
AZSUQ,Sumqayit,AZ,40.5833,49.6667
AZBAK,Baku,AZ,40.408005,49.86735
BDASJ,Ashuganj,BD,24.0333,91.0167
BDBNP,Benapole,BD,23.05,88.9
BDCGP,Chattogram,BD,22.3333,91.8333
BDMUN,Munshiganj,BD,23.5449195,90.5296275
BDPGN,Pangaon,BD,23.65,90.45
BDPAY,Payra Port,BD,21.9333,90.2667
BDMGL,Mongla,BD,22.4942196,89.6016171
BHAHD,Al Hidd,BH,26.2333,50.65
BHGBQ,Al Muharraq,BH,26.25,50.6
BHKBS,Khalifa Bin Salman Port,BH,26.2,50.6167
BHMIN,Mina Sulman Port,BH,26.2,50.6167
BHSIT,Sitrah,BH,26.1333,50.6167
BHMSP,Mina Sulman Port,BH,26.2,50.61667
BNBWN,Bandar Seri Begawan,BN,4.8833,114.9333
BNKUB,Kuala Belait,BN,4.5831986,114.2212174
BNMUA,Muara,BN,5.0333206,115.0732883
CCCCK,Cocos Islands,CC,-12.0,96.8333
CNAPP,Anpu,CN,21.3833,109.8333
CNAQG,Anqing Pt,CN,30.5167,117.0333
CNANQ,Anqiu,CN,36.4167,119.1833
CNANT,Anting,CN,31.3,121.15
CNAJG,Aojiang Pt,CN,27.5833,120.45
CNBCO,Bacao,CN,25.4667,105.7833
CNBDG,Badong,CN,31.0333,110.3833
CNBCG,Baiceng,CN,25.4333,105.8
CNBMJ,Baimajing,CN,19.7,109.2167
CNIMA,Baimao,CN,35.0167,118.6
CNBYG,Baiyang,CN,30.4333,111.5167
CNBSD,Baoshan Pt,CN,31.4167,121.4833
CNBSP,Basuo Pt,CN,19.0,108.6167
CNBIH,Beihai Pt,CN,21.4667,109.1167
CNBIJ,Beijiao,CN,22.9167,113.2
CNSXB,Beitan,CN,21.3667,110.25
CNPHB,Bijia,CN,22.6167,114.85
CNBHX,Binhai,CN,33.7167,119.6167
CNBYN,Binyang,CN,27.25,120.3333
CNDBX,Bohe,CN,21.5167,111.0
CNBZG,Bozhong,CN,38.45,118.4333
CNGSA,Cangshan,CN,34.85,118.05
CNCGW,Cangwu,CN,23.4833,111.3167
CNCFD,Caofeidian Pt,CN,38.95,118.5333
CNCJG,Caojing,CN,30.7833,121.4
CNCDH,Changdianhekou,CN,40.4167,124.8
CNCSH,Changsha,CN,28.2,112.9833
CNCGS,Changshu Pt,CN,31.65,120.7167
CNCZX,Changzhou Pt,CN,31.7833,119.9667
CNCHU,Chaohu,CN,31.6,117.85
CNCHY,Chaoyang Pt,CN,23.2667,116.6
CNCOZ,Chaozhou Pt,CN,23.6667,116.6333
CNCUN,Chencun,CN,22.95,113.2333
CNCNG,Chengde,CN,40.9667,117.9333
CNCLJ,Chenglingji Pt,CN,29.4333,113.15
CNCHX,Chengxi,CN,31.9167,120.2333
CNCWN,Chiwan Pt,CN,22.4833,113.8833
CNCHI,Chizhou Pt,CN,30.65,117.4667
CNCGM,Chongming,CN,31.6333,121.4
CNCQI,Chongqing,CN,29.5833,106.55
CNCHZ,Chuzhou,CN,32.3167,118.2833
CNCIX,Cixi,CN,30.1667,121.2333
CNDCB,DA CHAN BAY,CN,22.5333,113.8667
CNDDD,Dadeng I.,CN,24.5333,118.3167
CNDFG,Dafeng Pt,CN,33.1833,120.4667
CNDAL,Dalian,CN,38.9167,121.6
CNDLD,Dalu Island,CN,39.7333,123.7167
CNDMY,Damaiyu,CN,25.1833,119.6
CNDDZ,Dandong,CN,40.1333,124.3667
CNDHU,Danzhou,CN,25.3667,109.4333
CNDPG,Dapeng,CN,22.6,114.5
CNDAS,Dashihuagang,CN,38.9,121.6
CNDAX,Daxie Pt,CN,29.8833,121.95
CNDAY,Dayawan,CN,22.6667,114.6667
CNDEF,Defeng,CN,26.2167,109.1167
CNDEZ,Dezhou,CN,37.4333,116.2833
CNDDW,Dongdaiwan,CN,26.2333,119.6167
CNDFA,Dongfang,CN,19.05,108.9333
CNDGN,Donggang,CN,39.8833,124.1333
CNDGG,Dongguan Pt,CN,23.0333,113.75
CNDNG,Donghai,CN,22.95,115.6333
CNDJK,Dongjiangkou,CN,33.6667,108.6667
CNDJT,Dongjiaotou Pt,CN,20.3333,110.4167
CNDGP,Dongping,CN,21.7167,112.2167
CNDSH,Dongshi,CN,24.6667,118.4667
CNDOX,Dongxing,CN,21.4833,107.9833
CNDYN,Dongying Pt,CN,37.4167,118.6833
CNDOU,Doumen Pt,CN,22.2,113.2833
CNEZH,Ezhou,CN,30.4,114.8167
CNFAN,Fangcheng Pt,CN,21.7667,108.35
CNFCH,Fengcheng,CN,36.7,121.2333
CNFKI,Fengkai,CN,23.05,112.45
CNFUJ,Fujin,CN,47.25,132.0333
CNFLG,Fuling,CN,29.7,107.3333
CNFNG,Fuyong,CN,22.65,113.7833
CNFUY,Fuyuan,CN,48.35,134.3
CNFZH,Fuzhou,CN,26.0833,119.3
CNGAO,Gaogang,CN,32.3,119.85
CNGON,Gaolan,CN,21.9167,113.25
CNGLN,Gaolan,CN,36.3167,103.9333
CNGOM,Gaoming Pt,CN,22.8833,112.8333
CNGGK,Gongkou,CN,23.6333,117.2333
CNGOG,Gongming,CN,22.7833,113.8667
CNTSG,Gongyi,CN,22.25,112.8
CNGHI,Guanghai Pt,CN,21.9667,112.8
CNGGZ,Guangzhou,CN,23.1333,113.2333
CNGUG,Guigang,CN,23.1,109.6
CNGUI,Guilin,CN,25.2667,110.2833
CNGIS,Guishan,CN,22.1333,113.8167
CNGZE,Guzhen,CN,22.6,113.1667
CNHKO,Haikou,CN,20.0333,110.3333
CNHXG,Haikou New Pt,CN,20.25,108.8333
CNHIG,Haikou Pt,CN,20.0333,110.1667
CNHME,Haimen,CN,28.6667,121.4333
CNHRN,Harbin,CN,45.7333,126.6
CNHEB,Hebei,CN,39.8833,115.2667
CNHEK,Heihe,CN,50.2333,127.4833
CNHST,Heishantou,CN,50.2,119.3833
CNENP,Hengban,CN,22.2,112.3167
CNHNI,Hengli,CN,23.1667,114.6167
CNHSN,Heshan Pt,CN,22.7667,112.95
CNHTG,Hetang,CN,22.65,113.1333
CNBLX,Honghai Pt,CN,23.1667,114.2667
CNHOU,Houjie,CN,22.9333,113.6333
CNHZU,Houzhu,CN,24.8833,118.6667
CNHCN,Huachuan,CN,47.0167,130.7
CNHIJ,Huaiji,CN,23.05,112.45
CNHLI,Huailai,CN,40.3667,115.5
CNAIN,Huaiyin,CN,33.6333,119.0167
CNHUH,Huanghua Pt,CN,38.35,117.35
CNHGJ,Huangjiang,CN,25.1,107.3333
CNHUN,Huangpu New Port,CN,23.0833,113.5
CNHSI,Huangshi Pt,CN,30.2,115.1
CNANG,Huangxian,CN,29.55,121.5667
CNHYN,Huangyan,CN,28.6333,121.25
CNHID,Huidong Pt,CN,22.9833,114.7
CNHUI,Huizhou Pt,CN,23.0833,114.3667
CNHUL,Hulin,CN,45.7833,132.95
CNHUD,Huludao Pt,CN,40.75,120.85
CNHMN,Humen Pt,CN,22.8333,113.6667
CNHZH,Huzhou Pt,CN,30.8667,120.1
CNFKJ,Jiangkou,CN,23.45,111.5
CNJMN,Jiangmen Pt,CN,22.5833,113.0667
CNJIS,Jiangshan Pt,CN,21.6333,108.2667
CNJGY,Jiangyin,CN,25.4667,119.3
CNJIA,Jiangyin Pt,CN,31.9,120.2833
CNJAX,Jiaxing,CN,30.7667,120.75
CNJAY,Jiayin,CN,48.8667,130.3667
CNJIZ,Jiazi,CN,22.8667,116.05
CNHLJ,Jinghai,CN,23.0333,116.3
CNJOG,Jinghong,CN,22.0167,100.8
CNJIJ,Jingjiang Pt,CN,32.0333,120.2833
CNJGU,Jinguzhou,CN,22.5167,113.0167
CNJZK,Jingzhou Pt,CN,30.3,112.2667
CNPTJ,Jinjing,CN,25.5,119.7833
CNJNZ,Jinzhou Pt,CN,41.1167,121.15
CNJUJ,Jiujiang,CN,22.8333,113.0
CNJIU,Jiujiang Pt,CN,29.7167,115.9667
CNJUZ,Jiuzhen,CN,24.0333,117.7
CNJRG,Jurong,CN,31.9167,119.1667
CNKFG,Kaifeng,CN,34.7833,114.3333
CNLZO,Laizhou Pt,CN,37.1667,119.95
CNLSN,Lanshan Pt,CN,35.0667,119.3667
CNLXI,Lanxi,CN,29.2,119.4667
CNLIH,Lianhuashan Pt,CN,23.0167,115.2667
CNLYG,Lianyungang,CN,34.7167,119.4333
CNLIZ,Lianzhou,CN,24.7667,112.35
CNLLI,Liling,CN,27.6667,113.4833
CNLNH,Linhai,CN,28.85,121.1167
CNLUI,Lisui,CN,40.0667,116.75
CNLUD,Liudu,CN,23.0667,112.0
CNLZL,Liusha,CN,20.9,110.0667
CNLZH,Liuzhou Pt,CN,23.3167,109.4
CNLGU,Longguan,CN,40.7667,115.5667
CNLGI,Longhai,CN,26.4667,113.2667
CNLKU,Longkou Pt,CN,37.65,120.35
CNLGY,Longyan Pt,CN,37.4333,122.6333
CNLUN,Lu'an,CN,31.7333,116.4833
CNLFN,Lufeng,CN,22.95,115.6333
CNLUH,Lu-hua Shan,CN,30.8167,122.6167
CNLUB,Luobei,CN,47.5667,130.8167
CNLSH,Lushun New Pt,CN,38.6833,121.1833
CNLUS,Lusi,CN,32.05,121.6167
CNLUZ,Luzhou,CN,28.9,105.4
CNMAA,Maanshan Pt,CN,31.7167,118.4667
CNMAC,Macun,CN,19.95,110.0167
CNSHM,Mafang,CN,23.35,112.6833
CNMJS,Maji Shan,CN,30.6667,122.4
CNMWN,Mawan Pt,CN,22.45,113.8833
CNMAW,Mawei Pt,CN,25.9833,119.45
CNMSA,Meisha Pt,CN,24.7,117.0667
CNMIY,Miyun,CN,40.3667,116.8333
CNMOH,Mohe,CN,53.0167,122.45
CNNAN,Nanao Pt,CN,23.4333,117.6833
CNNAH,Nanhai Pt,CN,23.0167,113.15
CNNJK,Nanjiangkou,CN,23.1167,111.8
CNNJI,Nanjing,CN,32.05,118.7667
CNNIN,Nanning,CN,22.8,108.3167
CNNSA,Nansha Pt,CN,22.75,113.5833
CNNTG,Nantong Pt,CN,32.0167,120.85
CNZNZ,Naozhou,CN,20.9167,110.5833
CNNBO,Ningbo,CN,29.8667,121.55
CNNBG,Ningbo Pt,CN,29.9167,121.6667
CNNGB,Ningbo,CN,29.8667,121.55
CNNUD,Nudao,CN,36.3833,120.8667
CNPAJ,Panjin,CN,41.1167,122.05
CNPLI,Penglai Pt,CN,37.8,120.75
CNPXM,Pingshaxinmatou,CN,22.1,113.1667
CNPGZ,Pingzhou,CN,23.0333,113.2
CNPJS,Pizhou,CN,34.3351999,118.01246
CNPDG,Pudong/Shanghai,CN,31.2333,121.5
CNPUT,Putian,CN,24.4333,119.0167
CNPYG,Puyang,CN,35.7,115.0
CNQSN,Qianshan/Zhuhai,CN,22.2333,113.5167
CNQAW,Qianwan,CN,36.05,120.2167
CNLJQ,Qianyu,CN,26.2,119.5167
CNQIN,Qingdao,CN,36.05,120.3167
CNQIG,Qingguji / Shangqiu,CN,34.6833,115.7667
CNQLN,Qinglan Pt,CN,19.55,110.8167
CNQGS,Qingshi,CN,41.3667,126.5167
CNQGY,Qingyuan,CN,23.7,113.0167
CNSHP,Qinhuangdao Pt,CN,39.9167,119.5833
CNQSA,Qisha Pt,CN,21.5833,108.4667
CNQZL,Quanzhou,CN,24.9333,118.6
CNQZJ,Quanzhou Pt,CN,24.9333,118.6
CNJDR,Quxi,CN,23.5833,116.4333
CNROH,Raohe,CN,46.8,134.0
CNRPG,Raoping,CN,23.6667,117.0
CNRZH,Rizhao Pt,CN,35.3833,119.5333
CNRCG,Rongcheng,CN,37.15,122.3833
CNROQ,Rongqi Pt,CN,22.7833,113.2667
CNSIQ,Saiqi,CN,26.9667,119.6833
CNSAM,Sanming / Shanming Shi,CN,26.2333,117.6167
CNSNS,Sansha,CN,26.9333,120.2167
CNSJQ,Sanshui,CN,23.1667,112.8667
CNSYA,Sanya Pt,CN,33.7833,120.25
CNSZA,Sanzao,CN,22.05,113.35
CNNDS,Shacheng,CN,26.65,119.5167
CNSAT,Shadi,CN,21.6,112.7833
CNSGH,Shanghai,CN,31.2333,121.4833
CNSHA,Shanghai,CN,31.2333,121.4833
CNSGU,Shangyu,CN,30.0,120.8667
CNSXJ,Shanshan,CN,42.8667,90.1667
CNSTG,Shantou Pt,CN,23.4167,116.7667
CNSAW,Shanwai,CN,28.05,121.2
CNSWE,Shanwei Pt,CN,22.7833,115.35
CNHSC,Shaoguan New Pt,CN,24.8,113.6167
CNSPA,Shapa,CN,21.5,111.4833
CNSTI,Shatian,CN,23.9833,113.9
CNSHT,Shating,CN,23.05,113.4333
CNSHK,Shekou Pt,CN,22.4833,113.9167
CNSNH,Shenhu,CN,24.6167,118.6667
CNSNZ,Shenzhen,CN,22.55,114.1167
CNSEY,Sheyang,CN,33.7667,120.25
CNSHD,Shidao Pt,CN,36.8667,122.4333
CNSIJ,Shijing,CN,24.6167,118.4333
CNSJU,Shijiu Pt,CN,36.3667,119.55
CNSLO,Shilou,CN,23.0167,113.5
CNSPI,Shipai,CN,30.3167,116.65
CNXSP,Shipu,CN,29.4833,121.85
CNPNY,Shiqiao,CN,22.95,113.3667
CNSHH,Shishi,CN,24.7333,118.6333
CNSTB,Shitoubu Pt,CN,21.5833,109.55
CNSAN,Shiwan,CN,23.0,113.0833
CNSDG,Shuidong Pt,CN,21.5167,111.0
CNSIK,Shuikou,CN,22.2333,110.9333
CNSUD,Shunde Pt,CN,22.8333,113.25
CNSHL,Shuolong,CN,22.8,106.8
CNSKS,Sikuaishi,CN,39.2833,122.5667
CNSYM,Simao,CN,22.8,100.9667
CNSGJ,Songjiang,CN,31.0167,121.2333
CNSON,Songxia Pt,CN,25.6833,119.5833
CNSBN,Suibin,CN,47.3,131.85
CNSNN,Suining,CN,30.5333,105.5333
CNSUW,Sunwu,CN,49.4167,127.3167
CNSZH,Suzhou,CN,31.3167,120.6167
CNTAC,Taicang Pt,CN,31.45,121.1
CNTJG,Taijiang,CN,26.0833,119.5
CNTAP,Taiping,CN,21.0333,110.1667
CNTPW,Taipingwan,CN,37.2667,119.8333
CNTZO,Taizhou,CN,32.4833,119.9
CNTZU,Taizhou Pt,CN,32.5,119.9
CNTGG,Tanggu,CN,39.0167,117.65
CNTGS,Tangshan Pt,CN,39.6,118.1833
CNQNH,Tanmen,CN,19.2333,110.4667
CNTNJ,Tianjin,CN,39.0333,117.2
CNTNG,Tianjin Pt,CN,38.9833,117.75
CNTXG,Tianjin Xingang Pt,CN,38.9833,117.7
CNTOJ,Tongjiang,CN,47.65,132.5
CNTOL,Tongling Pt,CN,30.9333,117.8
CNTXZ,Tongxiang,CN,30.6333,120.5667
CNWIH,Waihai,CN,22.5833,113.1333
CNWAS,Wanshan Pt,CN,21.9333,113.7167
CNWAZ,Wanzai,CN,22.1833,113.5167
CNWEF,Weifang Pt,CN,36.7167,119.1
CNWEI,Weihai,CN,37.5167,122.1167
CNWEG,Weihai Pt,CN,37.5,122.1667
CNWIT,Weitou,CN,24.5333,118.6
CNLMG,Wenling Longmen Port,CN,28.4167,121.9833
CNWSH,Wenshan,CN,23.3667,104.25
CNWZO,Wenzhou Pt,CN,28.0167,120.65
CNWHU,Wuchuan,CN,21.45,110.75
CNNHN,Wuhan,CN,30.5833,114.2833
CNWHI,Wuhu Pt,CN,31.3167,118.3667
CNWUK,Wukan,CN,22.85,115.65
CNWXS,Wuxi,CN,31.5667,120.3
CNWUZ,Wuzhou Pt,CN,23.4833,111.3333
CNFQX,Xialong,CN,25.7,119.3833
CNXAM,Xiamen,CN,24.45,118.1
CNXMG,Xiamen Pt,CN,24.35,118.2
CNXIA,Xian,CN,34.2833,108.95
CNXTA,Xiangtan,CN,27.85,112.9
CNXZI,Xiangzhi,CN,24.7667,118.7667
CNXTN,Xiantan,CN,29.3333,104.8833
CNXCU,Xiaocuo Pt,CN,25.2,119.95
CNXAO,Xiaolan,CN,22.6667,113.2167
CNXOT,Xiaotang,CN,23.0833,112.9833
CNXIJ,Xijiang,CN,21.2833,114.8667
CNLSX,Xincun,CN,18.5,110.0167
CNXGA,Xingang,CN,23.0333,113.1
CNXIN,Xinhui Pt,CN,22.5333,113.0167
CNXNA,Xinsha,CN,22.9833,113.5333
CNXIT,Xintang Pt,CN,23.1167,113.6167
CNING,Xinyang,CN,32.1333,114.05
CNXYI,Xinying,CN,19.7333,109.2833
CNXTO,Xitou,CN,21.65,111.7833
CNXYG,Xiuyu Pt,CN,25.2333,118.95
CNXUK,Xunke,CN,49.55,128.4667
CNYJI,Yangjiang Pt,CN,21.8333,111.9667
CNYKG,Yangkou Pt,CN,32.55,121.4
CNYPG,Yangpu Pt,CN,19.7,109.2
CNYNG,Yangzhong,CN,32.2167,119.8167
CNYZH,Yangzhou Pt,CN,32.3833,119.4333
CNYAT,Yantai,CN,37.4635299,121.44801
CNYTG,Yantai Pt,CN,37.55,121.4167
CNYTN,Yantian Pt,CN,26.85,119.8667
CNYIK,Yingkou Pt,CN,40.65,122.2167
CNLJY,Yingzai,CN,21.6167,110.2833
CNYIZ,Yizheng,CN,32.2667,119.1667
CNYFU,Yongfu,CN,24.9833,109.9833
CNYYA,Yueyang,CN,29.3667,113.1
CNYUH,Yuhuan,CN,28.1333,121.2333
CNYZU,Yuzhu,CN,23.1,113.4167
CNZJB,Zhangjiabian,CN,22.55,113.45
CNZJG,Zhangjiagang,CN,31.8667,120.5333
CNZGS,Zhangshan,CN,34.1167,118.3167
CNZGW,Zhangwan,CN,26.7,119.5833
CNZZU,Zhangzhou Pt,CN,24.5167,117.65
CNZNG,Zhanjiang Pt,CN,21.0833,110.5
CNZDO,Zhaodong,CN,46.0667,125.9833
CNZHG,Zhaogang,CN,32.55,116.6333
CNZQG,Zhaoqing Pt,CN,23.05,112.45
CNZPO,Zhapo,CN,21.5667,111.85
CNZPU,Zhapu Pt,CN,30.5833,121.0833
CNZEL,Zhelin,CN,23.5833,117.1
CNZPG,zhengpugang Pt,CN,31.6333,118.3833
CNZHE,Zhenjiang Pt,CN,32.1833,119.45
CNZSN,Zhongshan Pt,CN,22.5167,113.3667
CNZGT,Zhongtang,CN,23.0833,113.65
CNZHH,Zhuanghe Pt,CN,39.6833,122.9667
CNZUH,Zhuhai Pt,CN,22.2833,113.5667
CNZLO,Zhuliao,CN,23.3667,113.3333
CNTAO,Qingdao Port,CN,36.05,120.3333333
CNXMN,Port of Xiamen,CN,24.45,118.0333333
CNTSN,Port of Tianjin,CN,39.1,117.1666667
CNDLC,Port of Dalian,CN,38.9166667,121.6666667
CNHUA,Port of Huangpu,CN,23.0566,113.5281
CNFOC,Port of Fuzhou,CN,26.05,119.3
CNASW,Aoshanwei,CN,36.35,120.667
CNBAO,Baoshanmatou,CN,31.2131001,121.5063355
CNBAY,Bayuquan,CN,40.230636,122.107814
CNBEI,Beilun,CN,29.933,121.883
CNBEN,Benxi,CN,41.28333,123.75
CNCAN,Guangzhou,CN,23.12911,113.264385
CNCDE,Changde,CN,29.01667,111.66667
CNCGU,Changshu,CN,31.7666,120.95
CNCIV,Civet / Guandong,CN,22.267,113.067
CNCMG,Chongming,CN,31.63333,121.38333
CNDAG,Dalian Pt,CN,38.926984,121.654095
CNDCD,Dachendao,CN,28.45,121.8666667
CNDDG,Dandong,CN,40.000787,124.354451
CNDFE,Dafeng,CN,32.48333,120.0
CNDGY,Dongying,CN,37.45,118.48333
CNDJA,Dongjiakou,CN,35.6,119.767
CNDLP,Daliangang,CN,38.9,121.6
CNDOO,Dongjiangkou,CN,33.63333,108.63333
CNDOP,Donglian Port,CN,23.25,115.017
CNDQD,Daqindao,CN,36.067117,120.382612
CNDSN,Dongshan Pt,CN,23.701262,117.430061
CNDXG,Dalian Pt,CN,38.8828623,121.5278118
CNFCE,Fengcheng,CN,36.7,121.23333
CNFOS,Foshan,CN,23.03333,113.1
CNFZP,Fuzhou Pt,CN,25.974642,119.509221
CNGAS,Gaosha,CN,23.28333,115.66667
CNGTE,Yingde,CN,24.18333,113.4
CNGUT,Guangdong Terminal,CN,22.567,114.433
CNGZG,Guangzhou Pt,CN,23.114346,113.281455
CNGZP,Guangzhou Pt,CN,23.1576366,113.4110535
CNHAP,Huangpo,CN,31.231763,121.484443
CNHAS,Heshan,CN,23.810227,108.8868
CNHHA,Huanghua,CN,38.36667,117.35
CNHHT,Haitian Terminal/ Xiamen,CN,27.1,120.3
CNHMP,Haimen Pt,CN,31.8195372,121.1249149
CNHOP,Huangpu Old Port,CN,23.1,113.41667
CNHSK,Huangsangkou,CN,30.007232,115.336359
CNHXD,Huangxingdao,CN,30.199378,122.644701
CNJXN,Jiao Xin,CN,22.705124,113.316811
CNLZU,Luzhou,CN,28.88333,105.45
CNMAJ,Majistan/Zhoushan,CN,30.017,122.1
CNMBI,Mabian Island,CN,23.117,115.083
CNMOG,Maogang,CN,23.05,112.733
CNMSH,Meisha,CN,41.304958,123.776572
CNMSN,Meishan,CN,30.07544,103.848538
CNNEG,Neigang,CN,23.1,113.417
CNNHS,Sanshan pt,CN,23.035339,113.226513
CNNJP,Nanjing Pt,CN,32.0750616,118.7706532
CNNKG,Nanjing,CN,32.2125,118.812
CNPLA,Penglai,CN,37.8,120.75
CNQDG,Qingdao Pt,CN,36.014189,120.20202
CNQHE,Qinghe,CN,37.0399299,115.66718
CNQPU,Qingpu,CN,31.15,121.1
CNQZH,Qinzhou,CN,21.979933,108.654146
CNRIA,Ruian,CN,27.778657,120.655148
CNSBU,Sanbu Pt,CN,22.3666,112.7166
CNSHC,Shacheng,CN,26.314775,116.346995
CNSHG,Shanghai Pt,CN,31.366365,121.61475
CNSHQ,Shiqi,CN,34.414172,115.65637
CNSIN,Shatian,CN,24.0,113.88333
CNSJI,Sanjiang,CN,30.7166667,122.4833333
CNSNW,Shenwan,CN,22.302496,113.363816
CNSTP,Shantou Pt,CN,23.302822,116.774468
CNSUN,Shunyi,CN,40.11667,116.63333
CNSZP,Shenzhen Pt,CN,22.4760219,113.9127408
CNSZX,Shenzhen,CN,22.543096,114.057865
CNTAG,Taicang,CN,31.43333,121.08333
CNTGU,Tanggu,CN,39.029528,117.661226
CNTIZ,Taizhou,CN,32.455778,119.923116
CNTJP,Tianjin Pt,CN,38.982173,117.746172
CNWAI,Waihai,CN,22.58333,113.13333
CNWFG,Weifang,CN,36.706774,119.161756
CNWGQ,Waigaoqiao Pt,CN,31.3510027,121.5850272
CNWNZ,Wenzhou,CN,27.9110235,120.8554106
CNWUC,Wu Chong Kou,CN,23.083,113.417
CNWUH,Wuhan,CN,30.580882,114.29635
CNWUO,Wuzhou,CN,23.476963,111.279115
CNWUP,Wuhan Pt,CN,30.4969304,114.3939601
CNXCG,Xichong Pt,CN,30.995032,105.900818
CNXFN,Xiangfan,CN,32.01667,112.15
CNXGG,Xingang,CN,38.98333,117.48333
CNXHK,Xinhekou,CN,20.028061,110.309418
CNXHO,Xiaohudao,CN,23.083,113.433
CNXIU,Xiuyu,CN,25.25,119.03333
CNXIZ,Xiangzhou,CN,22.265811,113.543785
CNXMP,Xiamen Pt,CN,24.356536,118.206734
CNXSA,Guangzhou,CN,23.1,113.25
CNXXY,Xiangyu Terminal/ Xiamen,CN,27.1,120.317
CNYAN,Yangshan Port,CN,30.61667,122.05
CNYBN,Yibin,CN,28.76667,104.56667
CNYCG,Yichang Pt,CN,30.691966,111.286471
CNYGN,Yongan,CN,25.941937,117.365053
CNYGS,Yangshan,CN,24.466675,112.626495
CNYIB,Yibin,CN,28.753105,104.642964
CNYNT,Yantai,CN,37.539058,121.368981
CNYON,Yongtai,CN,23.41667,112.4
CNYSA,Yangshan Pt,CN,30.6174595,122.0852074
CNYSN,Yangshan,CN,24.466675,112.626495
CNYTP,Yantai Pt,CN,37.41058,121.378119
CNYUF,Yunfu,CN,22.93333,112.03333
CNZAP,Zhapu,CN,30.6,121.06667
CNZGL,Gaolan,CN,21.93333,113.21667
CNZOS,Zhoushan,CN,29.985295,122.207215
CNZXN,Zhongxian,CN,30.29956,108.039002
CNZYO,Zhuangyuanao,CN,27.883,121.117
CXFFC,Flying Fish Cove,CX,-10.4167,105.7167
CYAKT,Akrotiri,CY,34.6,32.95
CYDHK,Dhekelia,CY,34.9833,33.75
CYFMG,Famagusta,CY,35.1,33.95
CYKAR,Karavostasi,CY,35.1333,32.8333
CYKYR,Kyrenia,CY,35.3333,33.3333
CYLCA,Larnaca,CY,34.9167,33.6167
CYLAT,Latchi,CY,35.0333,32.4
CYLMS,Limassol,CY,34.6833,33.05
CYMOI,Moni,CY,34.7333,33.2
CYNIC,Nicosia,CY,35.1667,33.3667
CYPFO,Paphos,CY,34.7667,32.4167
CYVAS,Vasilikos,CY,34.7167,33.3167
CYZYY,Zyyi,CY,34.7333,33.3333
CYANM,Ayia Napa,CY,34.983,34.0
CYARA,Aradhippou,CY,34.95,33.58333
CYAVA,Ayia Varvara,CY,34.9968356,33.3694007
CYAYI,Ayia Napa,CY,34.98333,34.0
CYERG,Ergates,CY,35.0541055,33.2436859
CYGEO,Ayios Georgios,CY,34.9,32.31667
CYKAP,Kapparis,CY,35.0596159,34.0093716
CYKYP,Kyperounda,CY,34.9413934,32.9680834
CYLAR,Larnaca Port,CY,34.91667,33.63333
CYLFS,Larnaca Fishing Shelter,CY,34.88333,33.63333
CYLIM,Limassol New Port,CY,34.65,33.01667
CYLIO,Liopetri,CY,35.0,33.88333
CYLOP,Limassol Old Port,CY,34.66667,33.05
CYNOU,Tersefanou,CY,34.8548144,33.5468888
CYORM,Ormidia,CY,34.9923198,33.7791944
CYPAR,Paralimni,CY,35.03333,34.03333
CYPOM,Pomos,CY,35.16667,32.55
CYPOT,Potamos,CY,34.96667,33.9
CYPSI,Psimolofou,CY,35.05,33.25
CYPYR,Pyrgos,CY,35.18333,32.66667
CYTRI,Ayia Triada,CY,35.05,34.01667
CYXLT,Xylotymbou,CY,35.0153362,33.7407024
CYXYL,Xylofagou,CY,34.96667,33.83333
CYZER,Xeros,CY,35.13333,32.83333
CYZYG,Zygi,CY,34.73333,33.33333
GEIES,Khashmi,GE,41.75,45.1667
GEKUL,Kulevi,GE,42.2667,41.6333
GEABK,Sukhumi,GE,43.0,41.0
GEBUS,Batumi,GE,41.6167547,41.6367455
GEPTI,Poti,GE,42.1582596,41.67137
GESUP,Supsa Port,GE,42.01667,41.71667
HKABD,Aberdeen,HK,22.25,114.15
HKCWB,Causeway Bay,HK,22.2833,114.1833
HKHKC,Ha Kwai Chung,HK,22.3667,114.1167
HKKWN,Kowloon,HK,22.3,114.1667
HKTST,Tsim Sha Tsui,HK,22.3,114.1667
HKWNI,Wan Chai,HK,22.2833,114.1667
HKHKG,Port of Hong Kong,HK,22.3,114.1666667
IDAGR,Anggrek,ID,0.85,122.7833
IDANO,Anoa Natuna Pt.,ID,5.2333,105.6
IDANR,Anyer Kidul,ID,-6.0667,105.8833
IDBPN,Balikpapan,ID,-1.2833,116.8333
IDBLH,Balohan,ID,5.8167,95.3333
IDBTM,Batam Island,ID,1.0833,104.0333
IDBUR,Batu Ampar,ID,1.1667,104.0167
IDBAM,Batuampar,ID,-0.9667,102.7333
IDBTW,Batulicin,ID,-3.45,115.9833
IDBLT,Belitung,ID,-2.8333,107.9167
IDBEN,Benete,ID,-8.8667,116.7167
IDBOA,Benoa,ID,-8.7667,115.2167
IDBYQ,Bunyu,ID,3.5,117.8
IDSZA,Cikande,ID,-6.2,106.35
IDCXP,Cilacap (Tjilatjap),ID,-7.7333,109.0
IDCBN,Cirebon (Tjeribon),ID,-6.7333,108.5667
IDCIW,Ciwandan,ID,-6.0167,105.95
IDDMA,Demta,ID,-2.3333,140.1333
IDDOB,Dobo,ID,-5.75,134.2167
IDDOG,Donggi,ID,-1.5333,122.25
IDSDA,Durian,ID,1.0167,103.5667
IDGTS,Gatot Subroto Permai,ID,-8.6333,115.2
IDINA,Inanwatan,ID,-2.1333,132.1667
IDJPU,Jakarta Pusat,ID,-6.1833,106.8333
IDJWA,Jawa Timur,ID,-7.7333,112.5
IDJEP,Jepara,ID,-6.5833,110.65
IDJIP,Jogja Inland Port,ID,-7.9,110.3833
IDKBH,Kalabahi,ID,-8.2167,124.5167
IDKSO,Kalbut Situbondo,ID,-7.6167,113.8833
IDKSE,Kassue,ID,-0.789275,113.921327
IDKAU,Kau,ID,1.1833,127.9
IDKDW,Kendawangan,ID,-2.5333,110.2
IDKOJ,Koja,ID,-6.3,106.3833
IDKMD,Komodo,ID,-8.5833,119.5
IDKUA,Kualalangsa,ID,4.5333,98.0167
IDKTJ,Kualatanjung,ID,3.35,99.4833
IDKUM,Kumai,ID,-2.7333,111.7167
IDLBO,Labuan Bajo,ID,-8.5,119.8833
IDLBR,Lembar,ID,-8.7333,116.0667
IDLBM,Lobam,ID,1.0,104.2667
IDLTT,Lubuk Tutung,ID,0.7667,117.7333
IDMDR,Madura Terminal,ID,-6.85,112.95
IDMAK,Makassar,ID,-5.1167,119.4
IDMGB,Manggis,ID,-8.4833,115.5167
IDMKJ,Mangkajang,ID,2.1333,117.7333
IDCTO,New Priok Port,ID,-6.0833,106.9167
IDNIP,Nipah,ID,1.1167,103.55
IDPDG,Padang,ID,-0.95,100.35
IDPAL,Palu,ID,-0.8833,119.85
IDPBB,Pelabuhan Badas,ID,-8.45,117.3667
IDPER,Perawang,ID,1.0667,102.8667
IDPWG,Perawang,ID,0.6333,101.6167
IDPBJ,Pulau Bunyu,ID,-0.3,115.8667
IDPUT,Pulau Laut,ID,-3.2833,116.15
IDRNI,Ranai,ID,3.9167,108.3833
IDSAP,Sape,ID,-8.5667,118.9833
IDSKP,Sekupang,ID,1.1333,103.9333
IDSRG,Semarang,ID,-6.9667,110.4833
IDSZH,Senipah,ID,-0.95,117.15
IDSTN,Setagin,ID,-3.2833,116.1667
IDSID,Sidangoli,ID,0.9,127.4833
IDSUB,Surabaya,ID,-7.2333,112.75
IDTJQ,Tanjung Pandan,ID,-2.75,107.65
IDTJB,Tanjungbalai,ID,1.0,103.4333
IDTNJ,Tanjungpinang,ID,0.9167,104.45
IDTAN,Tanjunguban,ID,1.05,104.2333
IDTRH,Tarahan,ID,-5.5667,105.3667
IDTBR,Telukbayur,ID,-1.0,100.3667
IDTBL,Toboali,ID,-3.0,106.5
IDUDG,Udang Natuna Terminal,ID,4.0167,106.4667
IDAKE,Akeselaka,ID,1.05,127.967
IDANG,Angar,ID,-3.65,130.833
IDAPN,Ampana,ID,-0.867,121.583
IDASI,Asike,ID,-6.65,140.417
IDBDJ,Banjarmasin,ID,-3.3186067,114.5943784
IDBET,Belida Terminal,ID,4.133,105.133
IDBGD,Bagendang,ID,-2.733,112.55
IDBGG,Banggai,ID,-1.591,123.4991
IDBIR,Biringkassi,ID,-4.817,119.483
IDBNT,Belanak Terminal,ID,4.167,106.233
IDBTN,Banten,ID,-6.4058172,106.0640179
IDCER,Cereweh,ID,-8.817,116.817
IDELA,Elat,ID,-5.65,133.117
IDENO,Kuala Enok,ID,-0.533,103.4
IDEXS,Exspan,ID,-1.8,105.133
IDFTG,Pelabuhan Futong Terminal,ID,0.817,102.4
IDGEE,Gee Island,ID,0.833,128.317
IDJBK,Jababeka,ID,-6.25,107.15
IDJBT,Jabung Terminal,ID,-0.883,104.067
IDJOR,Jorong Anchorage,ID,-4.183,115.1
IDKGH,Krueng Geukueh,ID,5.25,97.033
IDKHY,Kahyangan,ID,-8.483,116.667
IDKNL,Kolonodale,ID,-1.967,121.333
IDKNT,Kakap Natuna Terminal,ID,5.017,105.95
IDKOK,Kokas,ID,-2.7,132.433
IDKOL,Kolaka,ID,-4.05,121.567
IDKPL,Kampung Laut,ID,-0.9,103.8
IDKRG,Kariangau,ID,-1.167,116.783
IDLKI,Loki,ID,-3.3,128.05
IDLOM,Lombok,ID,-8.5,116.667
IDLUW,Luwuk,ID,-0.938828,122.792801
IDMAI,Mapia Island,ID,0.883,134.317
IDMAR,Marabahan,ID,-2.983,114.767
IDMBK,Muara Bangkong,ID,0.4,103.783
IDMIT,Misool Terminal,ID,-1.567,130.517
IDMOR,Mornopo,ID,0.783,128.217
IDMOW,Morowali,ID,-1.867,121.5
IDMSB,Muara Siberut,ID,-1.583,99.2
IDMSK,Muara Sabak,ID,-0.8,103.917
IDMUW,Muara Teweh,ID,-0.9349425,114.8985047
IDNPL,North Pulau Laut,ID,-3.217,116.267
IDNTA,Nipah,ID,1.15,103.6
IDPGA,Pagerungan,ID,-6.917,115.917
IDPGM,Pagimana,ID,-0.8,122.617
IDPIR,Piru,ID,-3.067,128.183
IDPJK,Pulau Jarak,ID,3.96667,100.08333
IDPMK,Pomako,ID,-4.8,136.767
IDPNG,Penuba,ID,-0.3269444,104.4677778
IDPNJ,Panjang,ID,-5.4641159,105.3218997
IDPOT,Poto Tano,ID,-8.517,116.833
IDREO,Reo,ID,-8.317,120.5
IDSBM,Subaim,ID,1.117,128.167
IDSDJ,Sidoarjo,ID,-7.4497718,112.7015495
IDSEP,Sepanjang Terminal,ID,-7.183,115.783
IDSGU,Sanggau,ID,0.117,110.6
IDSOQ,Sorong,ID,-0.8761629,131.255828
IDSUA,Suaran,ID,2.05,117.7
IDSUK,Sukabumi,ID,-6.9277361,106.9299579
IDSUM,Sumenep,ID,-7.05,113.95
IDSUN,Sunut,ID,-8.867,116.55
IDSWT,Salawati Terminal,ID,-1.35,131.0
IDTAB,Taboneo,ID,-3.683,114.417
IDTAR,Tarjun,ID,-3.267,116.083
IDTBO,Tobelo,ID,1.7145909,127.9678652
IDTBU,Tanjung Buli,ID,0.833,128.25
IDTER,Terempa,ID,3.217,106.217
IDTES,Semarang,ID,-6.96667,110.48333
IDTJP,Tanjungperak,ID,-7.2,112.71667
IDTLI,Tolitoli,ID,0.8768231,120.7579834
IDTME,Tanjung Merangas,ID,0.033,117.517
IDTMK,Timika,ID,-4.75,136.55
IDTPN,Tanjung Pemancingan,ID,-3.183,116.267
IDTPP,Tanjung Priok,ID,-6.1,106.88333
IDTUA,Tual,ID,-5.633,132.733
IDTZD,Amurang,ID,1.1846911,124.575545
IDUTC,Jakarta UTC1,ID,-6.2087634,106.845599
IDUTE,Jakarta UTC3,ID,-6.2087634,106.845599
IDWAI,Wainibe,ID,-3.067,126.533
IDWED,Weda,ID,0.333,127.883
IDWSS,Wamsasi,ID,-3.567,126.167
ILAKK,Akko,IL,32.9167,35.0667
ILBGV,Binyamina-Giv'at Ada,IL,32.5167,34.9333
IL8UH,Gush Halav,IL,33.1667,35.4333
ILHFA,Haifa,IL,32.8,34.9833
ILMSP,Haifa Israel Shipyards Port,IL,32.8,34.9833
ILJUL,Julis,IL,31.6833,34.65
ILKY7,Karmei Yosef,IL,31.8333,34.9167
ILKFV,Kfar Vitkin,IL,32.3667,34.8667
ILM8A,Magshimim,IL,32.0333,34.9
ILAS2,Mishor Adumim,IL,31.7833,35.3167
ILNAB,Nabulus,IL,32.2167,35.25
ILNAT,Netanya,IL,32.3333,34.8667
ILOFR,Ofra,IL,31.95,35.25
ILTLV,Tel Aviv-Yafo,IL,32.05,34.75
ILTIB,Tiberias,IL,32.8,35.5333
ILASH,Port of Ashdod,IL,31.8333333,34.6333333
ILAKL,Ashkelon,IL,31.6687885,34.5742523
ILAST,Ashdod Southport,IL,31.817,34.65
ILETH,Elat (Eilath),IL,29.557669,34.951925
ILHAD,Hadera,IL,32.433672,34.919217
ILHBT,Haifa Bayport,IL,32.8,34.983
ILMLE,Ramla,IL,31.931566,34.872938
INALF,Alleppey,IN,9.4833,76.3167
INATU,Attur,IN,12.7333,79.95
INBPT,Bangarapet,IN,12.9833,78.1833
INBDH,Bhadohi,IN,25.4167,82.5667
INBRU,Bharuch,IN,21.7,72.9667
INBHU,Bhavnagar,IN,21.7667,72.1333
INMAA,Chennai (ex Madras),IN,13.0833,80.2833
INCOK,Cochin,IN,9.9667,76.2333
INDMA,Dhamara,IN,20.8,86.9
INDMQ,Dhamra Port,IN,20.8167,86.95
INDIG,Dighi (Pune),IN,18.25,72.9667
INEKM,Ernakulam,IN,9.9833,76.2833
INERO,Erode,IN,11.35,77.7333
INGGV,Gangavaram,IN,17.65,83.25
INGRR,Garden Reach,IN,22.5167,88.3
INHZA,Hazira Port/Surat,IN,21.0833,72.6167
INJBD,Jafarabad,IN,20.85,71.3667
INIXJ,Jammu,IN,32.7,74.85
INJDG,Jodhpur,IN,21.8833,70.0333
INIXY,Kandla,IN,23.0333,70.2167
INKAR,Karur,IN,10.95,78.0833
INKAT,Kattupalli,IN,13.3,80.35
INKTP,Kattupalli Port,IN,13.3,80.3833
INKHO,Khodiyar,IN,23.05,72.9333
INCCU,Kolkata (ex Calcutta),IN,22.5667,88.35
INCCJ,Kozhikode (ex Calicut),IN,11.25,75.7667
INLNG,Lapanga,IN,21.7333,84.0167
INIXM,Madurai,IN,9.9333,78.1167
INMAH,Mahe,IN,11.7,75.5333
INMDV,Mandvi,IN,22.8333,69.3667
INMRM,Marmagao (Marmugao),IN,15.4,73.7833
INMOB,Morbi,IN,22.8167,70.8333
INMDK,Mul Dwarka,IN,20.75,70.6667
INBOM,Mumbai (ex Bombay),IN,18.9667,72.8167
INMUG,Munger,IN,25.3833,86.4667
INNPT,Nagappattinam,IN,10.7833,79.8167
INNGC,Nagercoil,IN,8.1667,77.4333
INICD,New Delhi,IN,28.6,77.2
INNTU,New Tuticorin,IN,8.75,78.2167
INNHV,Nhave,IN,18.95,72.9667
INNEE,Nindakara,IN,8.9333,76.5333
INORS,Orissa,IN,20.2333,84.2667
INPRT,Paradip Garh,IN,20.3167,86.6167
INPAV,Pipavav (Victor) Port,IN,20.9667,71.55
INPNY,Pondicherry,IN,11.9167,79.8167
INPPV,Port Pipavav,IN,20.9333,71.5167
INPST,Positra,IN,22.4,69.1667
INBPQ,Pratapganj,IN,26.3,86.9667
INROZ,Rozi,IN,22.5667,70.0333
INSAM,Samalkot,IN,17.05,82.1833
INSIK,Sika,IN,22.4333,69.8333
INSKK,Sikkim,IN,27.3516407,88.3239309
INSIL,Siliguri,IN,26.7167,88.4167
INSTV,Surat,IN,21.1667,72.8333
INTAD,Tadri,IN,14.5167,74.35
INTHN,Thane,IN,19.2,72.9667
INKTK,Toranagallu,IN,15.2,76.6833
INZUM,Tumkur,IN,16.5,77.0833
INTUT,Tuticorin,IN,8.7833,78.1333
INURA,Uran,IN,18.8833,72.9333
INBDQ,Vadodara,IN,22.3,73.2
INVTZ,Visakhapatnam,IN,17.7,83.3
INWAD,Wada,IN,18.9833,73.75
INNSA,port of Nhava Sheva,IN,19.0330488,73.02966
INMUN,Port of Mundra,IN,22.756025,69.636455
INBLR,Port of Bangalore,IN,12.9833333,77.5833333
INAMD,Port of Ahmedabad,IN,23.03,72.58
INAIS,Amini Island,IN,11.117,72.733
INBDR,Baindur,IN,13.866,74.6333
INBED,Bedi,IN,22.4977692,70.0445662
INBEY,Beypore,IN,11.173585,75.8040022
INBFR,GRFL ICD/Ballabhgarh,IN,28.35,77.31667
INBHM,Bheemunipatnam,IN,17.8875169,83.4456801
INCDL,Cuddalore,IN,11.75,79.75
INCHI,Chikaballur,IN,13.2074794,77.9884958
INCNN,Cannanore,IN,11.8744775,75.3703662
INDAH,Dahej,IN,21.7129335,72.582009
INENR,Ennore,IN,13.2666,80.35
INERN,Ernakulam,IN,9.98333,76.28333
INGAN,Gandhar,IN,21.083,72.633
INGND,Greater Nodia,IN,28.817,77.883
INGNO,Greater Noida,IN,28.467,77.517
INHAL,Haldia,IN,22.0666742,88.0698118
INIXE,Mangalore,IN,12.9141417,74.8559568
INJAK,Jakhau,IN,23.218611,68.716944
INJNP,Port Jawaharlal Nehru,IN,18.95,72.95
INKAK,Kakinada,IN,16.9890648,82.2474648
INKAL,Kallai,IN,25.0345221,86.5981031
INKPI,Kalpeni Island,IN,10.067,73.633
INKRI,Krishnapatnam,IN,14.2886008,80.1248476
INMRI,Mithivirdi,IN,21.467,72.233
INNAV,Navlakhi,IN,21.5177091,70.3163535
INNML,New Mangalore,IN,12.9477532,74.8214693
INPPT,Paradip Port,IN,20.25,86.583
INSWA,Sahnewal,IN,30.85,75.95
INVIG,Vizagapatanam,IN,17.6411439,82.6712877
INVIZ,Vizag,IN,17.7,83.25
IQHIL,Al Hillah,IQ,32.4833,44.4333
IQTQD,Al Taqaddum,IQ,33.3333,43.5833
IQBGW,Baghdad,IQ,33.3333,44.3833
IQOSM,Mosul (Ak Mawsil),IQ,36.3489278,43.157736
IQNJF,Najaf,IQ,31.9833,44.3
IQNSR,Nasiriyah,IQ,31.05,46.25
IQSAM,Samarra',IQ,34.2,43.8667
IQTJI,Taji,IQ,33.5167,44.2667
IQUQR,Umm Qasr Port,IQ,30.0333,47.9333
IQZAO,Zakho,IQ,37.1333,42.7
IRAMP,Amir Abad Pt,IR,36.0833,52.3667
IRASA,Asaluyeh,IR,27.4667,52.6
IRBND,Bandar Abbas,IR,27.1833,56.2667
IRAMD,Bandar Amirabad,IR,36.7833,53.35
IRBKM,Bandar Khomeini,IR,30.4333,49.1
IRBMR,Bandar Mashur,IR,30.55,49.1833
IRNEK,Bandar Neka,IR,36.8667,53.5333
IRBAZ,Bandar-e Anzali,IR,37.4667,49.4667
IRBKK,Bandar-e Emam Khomeyni,IR,30.4333,49.1
IRBRG,Bandar-e Gaz,IR,36.7833,53.95
IRMRX,Bandar-e Mah Shahr,IR,30.5333,49.1667
IRBPA,Bandare Parsian,IR,27.1667,52.9
IRBUZ,Bushehr,IR,28.9667,50.8333
IRDAY,Dayyer,IR,27.8333,51.9333
IRBIK,Imam Khomeini Pt/ Mahshahr City,IR,30.4167,49.0667
IRKSH,Kermanshah (Bakhtaran),IR,34.3,47.05
IRSRP,Shahid Rajaee Pt/Bandar Abbas,IR,27.1167,56.0667
IRTMB,Tombak,IR,27.7167,52.1667
IRBAM,Amirabad,IR,26.85,54.367
IRCYT,Soroosh (Cyrus) Terminal,IR,29.033,49.467
IRFKR,Freidoon Kenar,IR,36.7,52.55
IRKHO,Khorramshahr,IR,30.4256219,48.1891185
IRNKA,Neka,IR,36.833,53.267
IRSBR,Shahid Bahonar,IR,32.9926532,47.7596484
IRSRA,Sarooj Anchorage,IR,27.733,52.15
IRZBR,Chah Bahar,IR,25.296878,60.6459285
JODAH,Abu Alandah,JO,31.9,35.9667
JOAQJ,Al 'Aqabah,JO,29.5333,35.0
JOAQB,'Aqaba,JO,29.5167,35.0
JPAIO,Aioi,JP,34.7833,134.4667
JPAIG,Aki-gun/Hiroshima,JP,34.3333,132.5333
JPAMX,AmagasakiNishinomiyaAshiya,JP,34.7167,135.4167
JPOMA,Aomi,JP,35.6167,139.7833
JPASI,Asahimachi,JP,35.5333,139.7
JPAUI,Asakuchi,JP,34.5167,133.5833
JPATA,Ataka,JP,36.4167,136.4167
JPCHG,Chigasaki,JP,35.3167,139.4
JPCYU,Chiryu,JP,35.0,137.05
JPGOO,Gobo Wakayama,JP,33.8833,135.15
JPGKA,Gushikawa,JP,26.35,127.8667
JPHKT,Hakata/Fukuoka,JP,33.6,130.4167
JPHMR,Hamura,JP,35.7667,139.3
JPHTO,Hatoma,JP,24.4667,123.7667
JPHGN,Higashisonogi-Gun Cho,JP,32.0333,129.9167
JPHIU,Hiratsuka,JP,35.3167,139.35
JPICO,Ichikikushikino,JP,31.7167,130.2667
JPZKA,Iizuka,JP,33.65,130.6833
JPIKK,Ikitsuki,JP,33.3833,129.4333
JPIZW,Inazawa,JP,35.25,136.7833
JPISG,Ishigaki,JP,24.3333,124.15
JPICW,Ishikariwan Shinko,JP,43.35,141.5
JPIKW,Ishikawa,JP,26.4167,127.8167
JPJTS,Joetsu,JP,37.15,138.2333
JPKAU,Kasumigaura,JP,36.0333,140.2167
JPASU,Kasuya,JP,33.6167,130.4833
JPKKX,Kikaishima,JP,28.3167,129.9833
JPKTN,Kitakami,JP,39.2833,141.1167
JPKKJ,Kitakyushu,JP,33.8333,130.8333
JPKSF,Kitsuki,JP,33.4167,131.6167
JPUKB,Kobe,JP,34.6833,135.1667
JPKOH,Kohama,JP,24.3333,123.9833
JPKOK,Kokura,JP,33.8,130.8833
JPAPP,Koshi,JP,32.8833,130.7833
JPMMD,Minamidaito,JP,25.8333,131.2333
JPMJR,Mitajiri,JP,34.0333,131.5833
JPMYI,Miyagi,JP,36.4333,139.1667
JPMMY,Miyakojima,JP,24.7833,125.3
JPMOJ,Moji/Kitakyushu,JP,33.9,130.9667
JPNOA,Nago,JP,26.5833,127.9667
JPNMC,Nakamichi,JP,35.5833,138.5833
JPNAN,Nakanoseki,JP,34.0,131.5333
JPSXZ,Nakanoto,JP,36.9833,136.9
JPNAI,Narashino,JP,35.6667,140.0167
JPXCA,Niikappu,JP,42.3667,142.3167
JPOSG,Ogi,JP,33.2833,130.2
JPOMC,Omachi,JP,36.8333,138.4167
JPAOM,Omi,JP,37.0167,137.8
JPNOJ,Onojo,JP,33.5333,130.4833
JPOPA,Oppama,JP,35.3,139.6167
JPOSA,Osaka,JP,34.6667,135.5
JPRYA,Ryuo,JP,35.0607672,136.1244806
JPHSG,Saga,JP,33.0833,133.1
JPSSS,Saikai,JP,32.9333,129.65
JPSYD,Sanyo Onoda Yamaguchi,JP,34.0833,131.1833
JPSEN,Satsumasendai,JP,31.8167,130.25
JPSEI,Seki,JP,35.4833,136.9167
JPSBH,Shibetsu,JP,44.1786188,142.4001131
JPSHJ,Shinko,JP,36.5667,138.0667
JPSUK,Sukumowan,JP,32.9167,132.7167
JPTKH,Takahama/Amakusa,JP,32.3667,130.0
JPTNY,Taniyama,JP,31.2833,130.3167
JPTBT,Tobata/Kitakyushu,JP,33.8833,130.8333
JPTBO,Tobo,JP,33.4833,129.9333
JPTOC,Togane,JP,35.5667,140.3667
JPTYO,Tokyo,JP,35.6833,139.75
JPTOX,Toshima/Tokyo,JP,34.5167,139.2667
JPTOA,Toyo,JP,33.9167,133.0833
JPTYA,Toyota,JP,35.0833,137.1667
JPTUB,Tsubame,JP,37.65,138.9333
JPTUZ,Tsuzu Yamaguchi,JP,34.05,132.2
JPTTK,Tsuzuki Ku,JP,35.5465011,139.5789316
JPUUN,Unnan,JP,35.2833,132.9
JPWAM,Wakamatsu/Kitakyushu,JP,33.8833,130.8167
JPYCH,Yachiyo,JP,35.7333,140.1
JPYWT,Yawata/Kitakyushu,JP,33.85,130.8
JPYOK,Yokohama,JP,35.45,139.65
JPYOS,Yokosuka,JP,35.2833,139.6667
JPYRO,Yoro,JP,35.3,136.55
JPYHI,Yoshiumi,JP,34.1333,133.0333
JPAXZ,Zushi,JP,35.2833,139.5833
JPNGO,Port of Nagoya,JP,35.0833333,136.8833333
JPABA,Abashiri,JP,44.0206319,144.2733983
JPAFG,Akitafunagawa,JP,39.883,139.95
JPASA,Asa,JP,36.5482687,136.6896784
JPAXT,Akita,JP,39.7199668,140.1034795
JPBKW,Shibukawa,JP,36.483,139.0
JPCHB,Chiba,JP,35.6074041,140.1065366
JPCHO,Choshi,JP,35.7346813,140.8266406
JPCHW,Chimu Wan,JP,26.383,127.917
JPCNS,Chinase,JP,35.543745,139.4450726
JPFTX,Fushikitoyama,JP,36.8,137.117
JPGTK,Kitanagoya,JP,35.233,136.85
JPHBK,Hibikishinko,JP,33.983,130.75
JPHEI,Henza,JP,26.2584803,127.744592
JPHHE,Hachinohe,JP,40.5122055,141.4882743
JPHIC,Hitachinaka,JP,36.3966506,140.5347934
JPHIJ,Hiroshima,JP,34.3852894,132.4553055
JPHKD,Hakodate,JP,41.7686961,140.7290599
JPHMD,Hamada,JP,34.8993937,132.0802638
JPHMM,Hamamatsu,JP,34.7108344,137.7261258
JPHOF,Hofu,JP,34.033,131.567
JPHSM,Hososhima,JP,32.4230672,131.6722509
JPHTC,Hitachi,JP,36.5991273,140.6504712
JPICK,Ichikawa,JP,35.7219115,139.9310099
JPIHA,Niihama,JP,33.975095,133.284764
JPIMA,Imafuku,JP,34.8802249,132.1908526
JPIMB,Imabari,JP,34.0662024,132.9977906
JPIMI,Imari,JP,33.2650014,129.8804221
JPISI,Ishikari,JP,43.19897,141.315016
JPIWK,Iwakuni,JP,34.1667451,132.2191641
JPIYM,Iyomishima,JP,33.9804152,133.5490295
JPKAE,Kashimae,JP,33.1037584,130.0985898
JPKAO,Kashino,JP,33.4659909,135.8503892
JPKBU,Kubuki,JP,31.8522211,130.4525374
JPKCZ,Kochi,JP,33.5481246,133.2521507
JPKIJ,Niigata,JP,37.9161244,139.0363708
JPKIS,Kamaishi,JP,39.2758046,141.8857275
JPKJK,Kajiki,JP,35.1952974,133.0692446
JPKMJ,Kumamoto,JP,32.80394,130.709
JPKNM,Kanmon,JP,33.9,130.917
JPKNZ,Kanazawa,JP,36.5610309,136.6566474
JPKOJ,Kagoshima,JP,31.5968539,130.5571392
JPKOM,Komatsushima,JP,34.0047412,134.5907301
JPKUH,Kushiro,JP,42.9849413,144.3818041
JPKWS,Kawasaki,JP,35.5308325,139.7029125
JPMAI,Maizuru,JP,35.4666,135.35
JPMIZ,Mizushima,JP,34.51543,133.7354835
JPMUR,Muroran,JP,42.3151792,140.9737666
JPMYJ,Matsuyama,JP,33.8393515,132.7653057
JPNAO,Naoetsu,JP,37.1858604,138.2550381
JPNAY,Nagayo,JP,32.8251889,129.8750453
JPNGS,Nagasaki,JP,32.7503334,129.8778888
JPNGY,Nagaokakyo,JP,34.933,135.7
JPNIH,Niigatahigashi,JP,37.9248713,139.0925911
JPNIK,Nikaho,JP,39.383,140.083
JPNTO,Nishitokyo,JP,34.733,139.533
JPNTY,Nanatsuyama,JP,33.8391574,132.7655752
JPOIT,Oita,JP,33.2396084,131.6095148
JPOJO,Osako,JP,34.6862971,135.5196609
JPOMZ,Omaezaki,JP,34.6379987,138.1280864
JPONA,Onahama,JP,36.9424912,140.8924708
JPOTK,Otake,JP,34.2376953,132.2221691
JPOTR,Otaru,JP,43.1902372,140.994172
JPRBN,Noboribetsu,JP,42.45,141.167
JPSBS,Shibushi,JP,31.4955583,131.0454228
JPSDS,Sendaishinko,JP,38.336164,140.826428
JPSET,Seto,JP,32.933,129.633
JPSGM,Sendaishiogama,JP,38.31437,141.0220608
JPSHS,Shimonoseki,JP,33.9575297,130.9411759
JPSKT,Sakata,JP,38.9147809,139.8366436
JPSMJ,Shinmoji,JP,33.867,130.983
JPSMN,Sakaiminato,JP,35.5396534,133.2316204
JPSMZ,Shimizu,JP,35.0989605,138.9027677
JPSSU,Sensyu,JP,34.433,135.25
JPSSZ,Shimada,JP,34.833,138.183
JPSTS,Satsumasendai,JP,31.8,130.3
JPSUZ,Susaki,JP,33.400745,133.282953
JPTAK,Takamatsu,JP,34.342542,134.0465405
JPTAM,Tamano,JP,34.4919434,133.945987
JPTHS,Toyohashi,JP,34.7688528,137.3916837
JPTKS,Tokushima,JP,34.08666,134.552549
JPTKY,Tokuyama,JP,34.0756731,131.8252971
JPTMK,Tomakomai,JP,42.6312464,141.6031222
JPTOS,Toyamashinko,JP,36.7666,137.1166
JPTOY,Toyama,JP,36.6958223,137.2137211
JPTRG,Tsuruga,JP,35.6459465,136.0556972
JPTSZ,Tosashimizu,JP,32.7816335,132.9549889
JPTXD,Tokuyamakudamatsu,JP,34.0,131.767
JPTYP,Tsuyoshi,JP,33.2181131,129.427781
JPUBJ,Ube,JP,33.9515554,131.2468161
JPUBK,Ushibuka,JP,32.199155,130.0203404
JPUSA,Usa/Tosa,JP,33.4510447,133.4417973
JPWAK,Wakayama,JP,34.2303678,135.1707405
JPYAT,Yatsushiro,JP,32.5083376,130.6018162
JPYKK,Yokkaichi,JP,34.9651064,136.6244121
JPYMG,Yamaguchi,JP,34.1859563,131.4706493
JPYOC,Yoichigaura,JP,32.3670966,130.3500788
KHKOS,Kampong Saom,KH,10.6,103.5167
KHTKH,Ta Khmau,KH,11.4833,104.95
KHPNH,Phnom Penh,KH,11.5563738,104.9282099
KHSHV,Sihanoukville,KH,10.63333,103.5
KHSIH,Sihanoukville,KH,10.63333,103.5
KPRIW,Riwon,KP,40.3167,128.6333
KPSIN,Sinpo,KP,40.0667,128.2667
KPSGN,Songnim,KP,38.7667,125.5833
KPTCH,Tanchon,KP,40.4167,128.9333
KPGEN,Gensan,KP,39.1538529,127.4460001
KRAWL,Aewol,KR,33.45,126.3167
KRBIN,Biin,KR,36.1167,126.4833
KRBOR,Boryeong,KR,36.3167,126.5
KRBUK,Bupyong/Incheon,KR,37.5,129.1333
KRPUS,Busan,KR,35.1333,129.05
KRCJA,Chuja,KR,33.95,126.3
KRDBL,Daebul/Yeongam-gun,KR,34.75,126.4333
KRDCN,Daecheon,KR,36.3167,126.5
KRDHS,Daeheuksando,KR,34.6833,125.4333
KRTSN,Daesan/Seosan,KR,37.0,126.3667
KRTJI,Dangjin,KR,36.9667,126.7833
KRTGH,Donghae,KR,37.4833,129.1167
KRGGH,Gageohyangri,KR,34.0667,125.0833
KRGDO,Galdoo,KR,34.3,126.5167
KRKCN,Gamcheon/Busan,KR,35.0833,129.0
KRGGU,Ganggu,KR,36.35,129.3833
KRKJE,Geoje,KR,34.85,128.5833
KRGMD,Geomundo,KR,34.0167,127.3
KRKHN,Gohyeon/Geoje,KR,34.8833,128.6167
KRKUV,Gunsan,KR,35.9833,126.7167
KRGRP,Guryongpo,KR,35.9833,129.55
KRKAN,Gwangyang,KR,34.9333,127.7
KRGIN,Gyeongin,KR,37.5333,126.6
KRHLM,Hallim,KR,33.4167,126.25
KRHDO,Hongdo,KR,34.65,125.1833
KRHPO,Hupo,KR,36.6667,129.45
KRHHP,Hwahungpo,KR,34.3,126.6667
KRHSN,Hwasun,KR,33.2333,126.3333
KRINC,Incheon,KR,37.45,126.6167
KRCHG,Janghang/Seocheon-gun,KR,36.0,126.6833
KRCHA,Jeju,KR,33.5,126.5167
KRCHF,Jinhae,KR,35.1333,128.65
KRJMJ,Jumunjin,KR,37.8833,128.8333
KRJHA,Junghwa,KR,34.7833,128.3667
KRKDO,Kukdo,KR,34.5333,128.4333
KRKWA,Kwangyang,KR,33.5,126.5333
KRMAS,Masan,KR,35.2,128.5667
KRMIP,Mipo/Ulsan,KR,35.5167,129.4333
KRMOK,Mokpo,KR,34.8,126.3833
KRMUK,Mukho/Donghae,KR,37.5333,129.1
KRNRD,Narodo,KR,34.3833,127.25
KRNDS,Nokdongsin,KR,34.5167,127.1333
KROKK,Okgye/Gangneung,KR,37.6,129.0333
KROKP,Okpo/Geoje,KR,34.8833,128.7
KRONS,Onsan/Ulsan,KR,35.4333,129.35
KRKPO,Pohang,KR,36.0333,129.3667
KRPTK,Pyeongtaek,KR,36.9667,127.1
KRSUK,Samcheok,KR,37.4333,129.1833
KRSCP,Samcheonpo/Sacheon,KR,34.9167,128.0667
KRSWD,Sangwangdeungdo,KR,35.65,126.1333
KRSPO,Seogwipo,KR,33.2333,126.55
KRSSP,Seongsan-po,KR,33.45,126.9167
KRSEL,Seoul,KR,37.5167,126.9333
KRSMA,Shinma,KR,34.4333,126.85
KRSHG,Sinhang/Pohang,KR,36.0833,129.55
KRSHO,Sokcho,KR,38.2,128.5833
KRSGG,Songgong,KR,34.8333,126.2167
KRSBU,South Busan,KR,35.0833,129.15
KRSUO,Suwon,KR,37.25,127.2333
KRTAN,Taean-gun,KR,36.7167,126.2667
KRTGA,Tonghae,KR,37.5333,129.1
KRTYG,Tongyeong,KR,34.8333,128.4167
KRULL,Ulleung,KR,37.4667,130.9
KRUSN,Ulsan,KR,35.5333,129.3167
KRWND,Wando-gun,KR,34.3,126.75
KRYPD,Yeonpyeongdo,KR,37.65,125.7
KRYOS,Yeosu,KR,34.75,127.7167
KRYOC,Yochon,KR,36.65,128.45
KRANJ,Anjeong,KR,34.95,128.433
KRBJG,Busanjin-Gu,KR,35.15,129.05
KRBNP,Busan New Port,KR,35.083,128.817
KRGUN,Gunpo,KR,37.333,126.983
KRICH,Incheon,KR,37.45,126.61667
KRKKN,Okke,KR,35.907757,127.766922
KRPNC,Pusan,KR,35.1,129.03333
KRWSN,Wonsan,KR,39.15,127.41667
KWSAL,As Salimiyah,KW,29.3333,48.0833
KWDOH,Doha,KW,29.3833,47.8
KWMIB,Mina' 'Abd Allah,KW,29.0167,48.1667
KWMEA,Mina' al Ahmadi,KW,29.0667,48.15
KWMZR,Mina Al Zour,KW,28.7167,48.4
KWSMY,Salmiya,KW,29.3333,48.0833
KWSWK,Shuwaikh,KW,29.35,47.9333
KZAAU,Aktau,KZ,43.65,51.15
KZBTN,Bautino,KZ,44.5333,50.25
KZTAU,Temirtau,KZ,50.05,72.95
LBACT,Amchit,LB,34.15,35.6333
LBBEY,Beirut,LB,33.8333,35.4833
LBBYL,Byblos,LB,34.1167,35.65
LBDRA,Dora,LB,33.9167,35.5667
LBSAY,Sayda,LB,33.55,35.3667
LBZUK,Zouk,LB,33.9667,35.6333
LBBRU,Brummana,LB,33.8852731,35.6386901
LBKYE,Tripoli,LB,34.4345947,35.8361633
LKCMB,Colombo,LK,6.9167,79.85
LKHBA,Hambantota,LK,6.1167,81.1167
LKKCT,Koggala,LK,5.9833,80.3333
LKMAW,Mawella,LK,6.0266294,80.360993
LKOLU,Oluvil,LK,7.2833,81.85
LKGAL,Galle,LK,6.0535185,80.2209773
MMKYA,Kyaiklat,MM,16.5667,95.7833
MMTEN,Tanintharyi,MM,12.0833,99.0167
MMTLA,Thilawa,MM,16.65,96.25
MMRGN,Yangon,MM,16.8660694,96.195132
MOMFM,Macau,MO,22.2,113.5333
MVBAL,Baa Atoll,MV,5.1333,72.95
MVCPP,Coastline Private Port,MV,4.1667,73.45
MVHID,Halaveli,MV,4.0333,72.9167
MVHTP,Hithadhoo Port,MV,-0.6333,73.1
MVHHE,Hulhule Island,MV,4.1833,73.5167
MVKUL,Kulhudhuffushi,MV,6.6167,73.05
MVKDP,Kulhudhuffushi Port,MV,6.6167,73.0667
MVMMP,Maamigili Port,MV,3.4667,72.8333
MVMGP,Maldive Gas,MV,4.1833,73.45
MVMLE,Male,MV,4.1667,73.5
MVMCP,Male' Commercial Harbor,MV,4.1667,73.5
MVRGI,Rangali,MV,3.6,72.7
MVVHP,Villa Hakatha,MV,4.1833,73.4333
MYBTK,Bandar Tenggara,MY,1.8667,103.6167
MYBAK,Batang Kali,MY,3.4667,101.6333
MYTJH,Batu Gajah,MY,4.4667,101.05
MYBTW,Batu Kawan,MY,5.25,100.4167
MYBTM,Batu Maung,MY,5.2833,100.2833
MYBEA,Beaufort,MY,5.3333,115.75
MYHUM,Hutan Melintang,MY,3.8833,100.9333
MYJEL,Jelutong,MY,5.4,100.3167
MYTKP,Kampong Tanjong Kupang,MY,1.35,103.5833
MYTLA,Kampung Tanjung Langsat,MY,1.4667,104.0167
MYKPN,Kepong,MY,3.2167,101.6333
MYKET,Kertih,MY,4.5167,103.45
MYKSS,Kota Sarang Semut,MY,5.9457664,100.3641409
MYBST,Kuala Besut,MY,5.8333,102.5667
MYDGN,Kuala Dungun,MY,4.7833,103.4333
MYKSL,Kuala Selangor,MY,3.3333,101.05
MYLGK,Langkawi,MY,6.3667,99.8
MYMBK,Merbok,MY,5.7167,100.4167
MYMEN,Nenasi,MY,3.1333,103.45
MYNII,Nilai,MY,2.8167,101.8
MYPEN,Penang (Georgetown),MY,5.4167,100.3167
MYPND,Pending,MY,1.55,110.3833
MYPGG,Pengerang,MY,1.3667,104.1167
MYRAI,Perai,MY,5.3833,100.3833
MYXPQ,Port Klang (Ferry Port),MY,3.0167,101.3667
MYPKG,Port Klang (Pelabuhan Klang),MY,3.0,101.4
MYBRU,Pulau Bruit,MY,2.5833,111.3333
MYLAU,Pulau Indah,MY,2.9333,101.3167
MYSIP,Samalaju,MY,3.95,113.5333
MYSAM,Samu,MY,1.55,111.5333
MYSAR,Sarikei,MY,2.1167,111.5167
MYSGM,Segamat,MY,2.5,102.8167
MYSNR,Senari - Sarawak,MY,1.6,110.4333
MYSGG,Sungai Udang,MY,2.25,102.0833
MYSUP,Sungai Udang Port,MY,2.25,102.1333
MYSUW,Sungai Way,MY,3.0833,101.6167
MYTAI,Tampoi,MY,1.4833,103.6833
MYTBI,Tanjong Bin,MY,1.3333,103.55
MYTGE,Tanjung Gelang,MY,3.9833,103.4167
MYTAG,Tanjung Lembung,MY,6.2833,99.7833
MYTMP,Tanjung Manis,MY,2.1333,111.35
MYTPP,Tanjung Pelepas,MY,1.3667,103.55
MYASQ,Teronoh,MY,4.4167,100.9833
MYTUB,Tubau,MY,3.1333,113.7
MYABU,Abu,MY,6.117,105.283
MYANG,Angsi,MY,5.083,104.683
MYBGR,Bunga Raya,MY,6.95,104.1
MYCEN,Cendor,MY,5.567,104.55
MYKEM,Kemaman,MY,4.2338358,103.3638015
MYKKH,Kuala Kedah,MY,6.105552,100.291428
MYKUA,Kuantan (Tanjong Gelang),MY,3.7633859,103.2201828
MYLPK,Northport/Pt Klang,MY,3.032328,101.36291
MYLUM,Lumut,MY,4.236302,100.6322198
MYMAN,Manjung,MY,4.15,100.617
MYMBS,Menumbok,MY,5.3,115.367
MYMKZ,Malacca,MY,2.19257,102.253
MYMUA,Muar,MY,2.048817,102.5715532
MYMUD,Muda Marine Terminal,MY,7.583,102.983
MYNIL,Nilai,MY,2.802455,101.7988711
MYPAN,Panchang,MY,3.688114,100.99435
MYPAS,Pasir Gogok,MY,1.356738,104.1294229
MYPBK,Pelabuhan Kelang,MY,3.0,101.4
MYPDI,Port Dickson,MY,2.52254,101.7962932
MYPJK,Pulau Jarak,MY,3.96667,100.08333
MYPKK,Pengkalan Kubor,MY,6.1991001,102.0889679
MYPMT,Penara Marine Terminal,MY,6.117,105.017
MYSUM,Sungai Merah,MY,2.333,111.833
MYTAS,Telok Intan,MY,4.022424,101.0206249
OMSUW,Al-Suwaiq,OM,23.85,57.4333
OMDQM,Duqm,OM,19.65,57.7
OMFAH,Fahal,OM,23.6833,58.5
OMMFH,Mina' al Fahl,OM,23.6333,58.5167
OMMCT,Muscat,OM,23.6,58.5833
OMQAL,Qalhat,OM,22.7,59.3667
OMSHI,Shinas,OM,24.7333,56.4667
OMOFC,Sur,OM,22.65,59.4333
OMOPQ,Port Qaboos,OM,23.60917,58.5517028
OMQUO,Quoin Island,OM,21.4735329,55.975413
OMSLL,Salalah,OM,17.0506675,54.1065864
OMSOH,Sohar,OM,24.3460959,56.7075141
OMSUL,Port Sultan,OM,23.617,58.633
PHABU,Abulug,PH,18.4333,121.45
PHAMU,Amunitan/Aparri,PH,18.3167,122.05
PHARA,Aras Asan/Bislig,PH,8.8833,126.3
PHATI,Atimonan/Siain,PH,13.9833,121.9
PHBGS,Balingasag,PH,8.75,124.7833
PHBSO,Basco,PH,20.45,121.9667
PHBTG,Batangas/Luzon,PH,13.75,121.05
PHBAU,Bauan/Batangas,PH,13.8,121.0
PHBNG,Bauang,PH,16.5167,120.3167
PHBIN,Binan,PH,14.3333,121.0833
PHBOG,Bogo,PH,11.05,124.0
PHBOS,Boston/Davao,PH,7.8667,126.35
PHCPC,Capoocan,PH,11.3,124.65
PHCST,Castanas,PH,13.8833,121.55
PHCSI,Culasi,PH,11.6,122.7
PHDNO,Danao,PH,10.5333,124.0333
PHENI,El Nido/Puerto Princesa,PH,9.7638429,118.7473298
PHGES,General Santos,PH,6.1167,125.15
PHAQE,Hamtic,PH,10.7,121.9667
PHJAS,Jasaan,PH,8.65,124.75
PHKAS,Kabasalan/Zamboanga,PH,7.7833,122.75
PHKLM,Kalamansig,PH,6.55,124.05
PHLAC,La Carlota,PH,10.4167,122.9167
PHLAB,Labason/Zamboanga,PH,8.0667,122.5167
PHLGU,Laguna,PH,10.3,123.8833
PHLZB,Lazi,PH,9.1167,123.6333
PHLEY,Leyte,PH,11.3667,124.4833
PHLUC,Lucanin,PH,14.4667,120.6167
PHLUG,Lugait,PH,8.3333,124.25
PHLNO,Lunao,PH,8.8667,125.05
PHNOP,Mactan Island Apt,PH,10.3,124.0
PHMTI,Makati,PH,16.4167,121.1
PHMKC,Makati City,PH,14.55,121.0333
PHMDN,Medina,PH,8.9167,125.0167
PHMNT,Muntinlupa City,PH,14.6167,121.05
PHOPO,Opol,PH,8.5167,124.5667
PHPIS,Philippines,PH,14.5833,121.0
PHIRN,Port Irene,PH,18.3667,122.1
PHSMR,Semirara,PH,12.0667,121.4
PHTBC,Tabaco/Legaspi,PH,13.35,123.7333
PHTTO,Taganito,PH,9.55,125.8167
PHTGO,Tagoloan,PH,8.5333,124.75
PHTAL,Talibon,PH,10.1333,124.3167
PHTAN,Tandayag,PH,9.45,123.2167
PHVTL,Vitali/Zamboanga,PH,7.3667,122.2833
PHMNL,Port of Manila,PH,14.5833333,120.9666667
PHAJU,Ajuy,PH,11.167,123.033
PHALB,Albuera,PH,10.967,124.633
PHALC,Alcoy,PH,9.683,123.5
PHAST,Astorga,PH,6.883,125.45
PHBAC,Bacong,PH,9.233,123.3
PHBAT,Batonbaton,PH,9.183,118.35
PHBOR,Boracay,PH,11.967,121.917
PHCDN,Cagdianao,PH,9.917,125.667
PHCEB,Cebu,PH,10.607936,123.8857747
PHCGI,Corregidor Island,PH,14.383,120.583
PHCRA,Carigara,PH,11.3,124.683
PHGHE,Garcia Hernandez,PH,9.617,124.3
PHGHG,Guihulngan,PH,10.117,123.283
PHGUN,Guiuan,PH,11.033,125.717
PHHIL,Hilongos,PH,10.367,124.75
PHHMH,Homonhon,PH,10.75,125.7
PHLNA,Larena,PH,9.25,123.583
PHMNI,Manicani,PH,11.0,125.65
PHMNN,Manila North Harbour,PH,14.6163986,120.9584279
PHMNS,Manila South Harbour,PH,14.5833333,120.95
PHMTP,Malatapay,PH,9.55,123.15
PHNGT,Batangas,PH,13.75,121.05
PHODI,Odiongan,PH,12.4,121.983
PHORL,Oroquieta,PH,8.483,123.8
PHPAN,Panabo,PH,7.3,125.683
PHPGA,Puerto Galera,PH,13.5,120.933
PHPGB,Pagbilao,PH,13.967,121.683
PHROM,Romblon,PH,12.567,122.267
PHSFS,Subic Bay,PH,14.7910576,120.2397336
PHSLM,Salomague,PH,17.783,120.417
PHTON,Tubigon,PH,9.95,123.967
PKKIA,Kiamari,PK,24.8167,66.9667
PKBQM,Muhammad Bin Qasim/Karachi,PK,24.7667,67.3333
PKKHI,Port of Karachi,PK,24.8166667,66.9833333
PKKBA,Keti Bandar,PK,24.133,67.433
PKKCT,Karachi Container Terminal,PK,24.835865,66.9831639
PKPCT,Pakistan International Container Te,PK,30.375321,69.345116
QARUS,Al Ruwais Qatar,QA,26.2333,51.3333
QASLW,As Salwa,QA,24.7333,50.75
QARLF,Ras Laffan,QA,25.9333,51.5333
QAUMS,Umm Sa'id (Mesaieed),QA,24.9833,51.5333
QADOH,Doha,QA,25.2854473,51.5310398
QAHAL,Halul,QA,25.6666667,52.4166667
RUABK,Abinsk,RU,44.8667,38.15
RUSAK,Aleksandrovsk-Sakhalinskiy,RU,50.9,142.15
RUAMV,Amderma,RU,69.7667,61.6667
RUAGK,Angarsk,RU,52.5333,103.8833
RUBGV,Bagaevskaya,RU,47.3167,40.3833
RUBKT,Belaya Kalitva,RU,48.1667,40.7833
RUBOS,Boshnyakovo,RU,49.65,142.1667
RUOLB,Bukhta Ol'ga,RU,43.723141,135.2273801
RUCHA,Chamgu,RU,50.9333,143.6
RUCHB,Chebarkul',RU,54.9667,60.3667
RUDHA,Derbeshkinskiy,RU,55.8667,53.5
RUEKO,Ekonomiya,RU,64.7,40.6333
RUPOK,Engels,RU,51.5,46.1167
RUGVY,Gavrilov-Yam,RU,57.3,39.85
RUIOY,Ikryanoye,RU,46.0833,47.7333
RUIVO,Ivanovo,RU,57.0167,41.0
RUKAS,Kashira,RU,54.8333,38.1667
RUKSI,Kasimov,RU,54.9333,41.4
RUKZP,Kavkaz,RU,45.4167,36.7667
RUKHO,Kholmsk,RU,47.05,142.05
RUKNY,Khvalynsk,RU,52.4833,48.1
RUKIY,Kirovskiy,RU,45.0833,133.5
RUKOK,Konakovo,RU,56.7,36.7833
RUXC2,Kotel'niki,RU,55.6333,37.85
RUKOT,Kotel'nyy,RU,75.632202,138.8649531
RURYK,Krasnoturansk,RU,54.3167,91.55
RUKSO,Krasnotur'insk,RU,59.7667,60.4667
RUKRA,Krasnoyarsk,RU,56.0167,93.0667
RUKYB,Krasnyye Barrikady,RU,46.2,47.85
RULVR,Lavrentiya,RU,65.5833,-171.0
RULDY,Lebedyan',RU,53.0,39.15
RULES,Lesogorsk,RU,49.4333,142.1167
RULBU,Lyubim,RU,58.35,40.6833
RUMCX,Makhachkala,RU,42.9667,47.5
RUMA2,Malino,RU,55.1,38.1667
RUMAS,Miass,RU,54.9833,60.1
RUMOW,Moskva,RU,55.75,37.6
RUMSH,Mys Shmidta,RU,68.8833,-179.4333
RUNAC,Naberezhnyye Chelny,RU,55.75,52.4167
RUNJC,Nizhnevartovsk,RU,60.9333,76.5667
RUNOG,Nogliki,RU,51.8167,143.1
RUNDK,Novodvinsk,RU,64.4167,40.8333
RUNMK,Novomoskovsk,RU,54.0833,38.1833
RUNVS,Novorossiysk,RU,44.7167,37.7667
RUOLO,Oleniy Ostrov,RU,62.0333,35.3333
RUOLP,Ol'ga,RU,43.7333,135.2833
RUOYA,Olya,RU,45.7833,47.5333
RUOZE,Oranzherei,RU,45.8333,47.5667
RUHZO,Orekhovo-Zuevo,RU,55.8167,38.9667
RUOZY,Ozery,RU,54.85,38.55
RUPYO,Poyarkovo,RU,49.6,128.6833
RUPRY,Preobrazheniye,RU,42.9,133.9
RUPGN,Prigorodnoye,RU,46.6167,142.9
RURND,Rostov-na-Donu,RU,47.2333,39.7167
RUSAB,Sabetta,RU,71.25,72.0833
RUSLH,Salekhard,RU,66.5167,66.6
RUKUF,Samara,RU,53.2167,50.1667
RUB2L,Shebekino,RU,50.4,36.9
RUSIZ,Siziman,RU,50.7167,140.4167
RUAER,Sochi,RU,43.6,39.7167
RUSNG,Solnechnogorsk,RU,56.1833,36.9667
RUSLK,Solovki,RU,65.4167,35.6833
RUTAM,Taman',RU,45.2167,36.7167
RUTVK,Timashevsk,RU,45.6167,38.9333
RUTOI,Tol'yatti,RU,53.4667,49.5
RUTDO,Trudfront,RU,45.9167,47.6667
RUUGC,Uglich,RU,57.5167,38.3167
RUUKK,Ust-Kamchatsk,RU,56.22747,162.469299
RUVAR,Varandey,RU,68.7833,57.9833
RUVTZ,Vityaz,RU,42.6,131.1667
RUFIP,Vladivostok,RU,43.1333,131.9
RUVOG,Volgograd,RU,48.8,44.5833
RUVZH,Volzhsk,RU,55.8333,48.25
RUVYP,Vostochnyy Port,RU,42.7667,133.05
RUVMS,Vostokmorservice,RU,43.0833,131.8667
RUVYK,Vyksa,RU,55.3167,42.1667
RUDEE,Yuzhno-Kuril'sk,RU,44.0333,145.85
RUZAR,Zarubino,RU,42.6167,131.0833
RUZDK,Zelenodol'sk,RU,55.8333,48.5167
RUABC,Ambarchik,RU,69.617,162.3
RUAKS,Aksay,RU,47.25,39.883
RUAMD,Amderma,RU,69.76667,61.56667
RUAMU,Amursk,RU,50.217,136.9
RUARM,Arman (Magadan),RU,59.6733284,150.1414857
RUAZO,Azov,RU,47.096418,39.414202
RUBKN,Bolshoy Kamen,RU,62.45,66.233
RUBLK,Balakhna,RU,56.483,43.617
RUBLN,Balakhnya,RU,56.8,105.817
RUBOR,Borisova,RU,57.017,106.233
RUCHM,Chemashi,RU,63.033,65.183
RUCHU,Chuya,RU,59.267,112.433
RUCPC,Cpc Terminal,RU,44.667,37.65
RUDBK,Dubovka,RU,49.05,44.817
RUDUB,Dubna,RU,56.75,37.133
RUFPT,Fish Port Terminal,RU,43.133,131.9
RUIDG,Indiga,RU,67.65,49.017
RUKIK,Kirensk,RU,57.76667,108.1
RUKIM,Kimry,RU,56.883,37.367
RUKLK,Kulakovo,RU,58.1,93.767
RUKLT,Koltogorskiye,RU,60.667,77.467
RUKLY,Kalyazin,RU,57.233,37.833
RUKMM,Malaya Kheta,RU,69.585656,84.485272
RUKNL,Konets Lug,RU,57.15,106.917
RUKOR,Korsakov,RU,46.6353796,142.7841876
RUKRI,Krivosheino,RU,57.333,83.95
RUKRY,Krasnyy Yar,RU,55.217,82.867
RUKSA,Kharasavey,RU,71.1,66.767
RUKTY,Khatyrka,RU,62.067,175.3
RUKUB,Kubekovo,RU,56.15,98.133
RUKUR,Kureysk,RU,58.95,111.333
RUKVO,Kolpashevo,RU,58.3,82.933
RUKYI,Kolguyev Island,RU,69.083,49.15
RUKYK,Kireyevskoye,RU,56.033,84.083
RUKZH,Kozhevnikovo,RU,56.267,83.983
RUKZM,Kozmino Port,RU,42.717,133.017
RULEO,Leonova,RU,57.333,107.45
RULEU,Leushinskiye,RU,62.183,67.183
RULNK,Lensk,RU,60.717,114.933
RULUG,Lugovoye,RU,57.717,83.8
RUMDY,Mamadysh,RU,55.7,51.383
RUMKR,Makarovo,RU,57.483,107.8
RUMOG,Mogochin,RU,57.7,83.583
RUMON,Molchanovo,RU,57.6,83.8
RUNAR,Narym,RU,58.917,81.583
RUNJK,Nakhodka,RU,42.8222753,132.8834039
RUNLK,Neftelensk,RU,57.333,107.067
RUNNT,Nizhnevartovsk,RU,60.93333,76.55
RUNPE,Nizhnyaya Pesha,RU,66.75,47.767
RUOKZ,Okruzhnoe,RU,50.317,143.8
RUOMK,Olekminsk,RU,60.367,120.417
RUOYE,Oktyabrskoye,RU,62.45,66.05
RUPGE,Peregrebnoye,RU,62.983,65.067
RUPHS,Prokhorovskiy,RU,59.5,79.417
RUPKC,Petropavlovsk-Kamchatskiy,RU,53.0,158.65
RUPNV,Polnovat,RU,63.783,65.9
RUPSE,Posyet,RU,42.6541056,130.8062539
RUPTP,Potapova,RU,57.383,107.517
RURSK,Angarsk,RU,52.55,103.91667
RURUB,Rubnoye,RU,58.117,94.517
RUSEW,Severodvinsk,RU,64.566667,39.866667
RUSKA,Slavyanka,RU,42.8711878,131.3784441
RUSTR,Streika,RU,58.083,93.033
RUTAG,Taganrog,RU,47.216667,38.916667
RUTAY,Tayura,RU,57.0,106.65
RUTAZ,Tazovskiy,RU,67.467,78.733
RUTUA,Tuapse,RU,44.106518,39.0806454
RUUEL,Uelen,RU,66.167,-169.817
RUVAY,Vaygach,RU,70.417,58.75
RUVKR,Vankarem,RU,67.833,-175.867
RUVLG,Volga,RU,57.95,38.4
RUVTM,Vitim,RU,59.417,112.567
RUVVO,Vladivostok,RU,43.1198091,131.8869243
RUVYE,Vertikoye,RU,59.383,79.683
RUYAM,Yamburg,RU,68.283,77.15
SADMM,Ad Dammam,SA,26.4167,50.1
SAJBI,Al Jubayl Industrial City,SA,27.0667,49.55
SAAQK,Al Khobar,SA,26.2833,50.2
SABUR,Buraydah,SA,26.3167,43.9667
SAJEC,Jazan Economic City,SA,17.2833,42.3333
SAJED,Jeddah,SA,21.5333,39.1667
SAGIZ,Jizan,SA,16.8833,42.55
SARAZ,Ras Al-Khair,SA,27.4667,49.2833
SAVLA,Umm Lajj,SA,25.0167,37.2667
SAYNB,Yanbu al-Bahr,SA,24.0833,38.0333
SAYBI,Yanbu Industrial City,SA,23.9833,38.2167
SAAMU,Al Muajjiz,SA,23.467,38.383
SADHU,Dhuba,SA,27.3457474,35.7243073
SAJUB,Jubail,SA,27.017,49.667
SAJUT,Juaymah Terminal,SA,26.917,50.017
SAJYC,Jeddah Yachts Club Port,SA,21.65,39.1
SAKAC,King Abdullah City,SA,22.4,39.083
SAKHU,Al Khuraibah,SA,28.05,35.167
SAQAH,Al Qahmah,SA,18.017,41.667
SAQUN,Al Qunfudah,SA,19.117,41.067
SARAR,Ras al Khafji,SA,28.416667,48.5
SARTA,Ras Tanura,SA,26.633,50.15
SGBKM,Bukit Merah Estate,SG,1.2833,103.8167
SGCHG,Changi,SG,1.3167,104.0
SGJUR,Jurong/Singapore,SG,1.3333,103.7
SGPPT,PASIR PANJANG Terminal,SG,1.2833,103.7667
SGAYC,Pulau Ayer Chawan,SG,1.2667,103.7
SGTUA,Tuas,SG,1.3167,103.65
SYALD,Al Ladhiqiyah,SY,35.5167,35.7833
SYARW,Arwad,SY,34.85,35.85
SYBEN,Banghazi,SY,32.1167,20.0667
SYBAN,Baniyas,SY,35.1833,35.95
SYLTK,Latakia,SY,35.5167,35.7833
SYTTS,Tartus,SY,34.9,35.9
SYRAD,Rouad,SY,34.85,35.85
SYTAO,Tartus Oil Terminal,SY,34.967,35.883
THSHT,Actu-lum,TH,13.65,100.55
THBNK,Ban Kantang,TH,7.4167,99.5
THBPK,Ban Prakop Customs House,TH,6.4667,100.7167
THBTP,Ban Talat Takua Pa,TH,8.8333,98.3667
THBSP,Bang Saphan,TH,11.2,99.5167
THBKK,Bangkok,TH,13.75,100.5167
THBTC,Bangpakong Terminal,TH,13.4667,100.9833
THBAI,Bangpoomai,TH,13.5,100.6
THCHS,Chiang Saen Customs House,TH,20.3167,100.0667
THECT,Ekachai Container Terminal,TH,13.5833,100.3167
THKPT,Kamphaeng Phet,TH,16.4667,99.5167
THKAN,Kantang,TH,7.4,99.5167
THKHA,Khanom,TH,9.2,99.8833
THKLY,Khlong Yai,TH,11.7667,102.9
THKSM,Ko Samui,TH,9.5333,99.9333
THKRV,Krabi,TH,8.0667,98.7333
THLCH,Laem Chabang,TH,13.0833,100.8833
THNKT,Nakhon Si Thammarat,TH,9.2333,99.8667
THNRW,Narathiwat,TH,6.4167,101.8167
THNHP,NH Prosperity,TH,13.1833,100.8
THPTN,Pattani,TH,6.8833,101.2667
THPYT,Phahon Yothin Customs House,TH,13.8,100.5333
THPTR,Photharam,TH,13.6833,99.85
THKRU,Phra Khanong,TH,13.7,100.6
THPPA,Phra Pradaeng,TH,13.6167,100.55
THPKT,Phuket Port,TH,7.8167,98.4
THPPC,Prachuap Port,TH,11.2,99.5833
THRNN,Ranong,TH,9.9667,98.6333
THSTH,Sathun,TH,6.7,99.6333
THSBP,Siam Bangkok Port,TH,13.65,100.55
THSSW,Siamgas and Petrochemicals,TH,13.6333,100.55
THSGK,Songkhla,TH,7.2333,100.5667
THI6C,T S Transport and Logistics,TH,13.65,100.5667
THTAB,Tak Bai Customs House,TH,6.25,102.05
THTRG,Trang,TH,7.55,99.6
THUCT,Unithai Container Terminal,TH,13.5833,100.5833
THBMT,Bangkok Modern Terminals/Bangkok,TH,13.6,100.583
THBND,Ban Don,TH,9.183,99.367
THBNG,Bangnara,TH,6.433,101.833
THBNL,Ban Laem,TH,13.117,100.117
THBPG,Ban Pong,TH,13.8,99.867
THCHA,Chanthaburi,TH,12.3,102.233
THCHU,Chumphon,TH,10.433,99.267
THERA,Erawan,TH,17.285368,101.9576317
THKLA,Ko Lanta,TH,8.05,98.9
THKSI,Ko Sichang,TH,13.133,100.817
THKTL,Klong Toey,TH,13.7,100.58333
THKTY,Khlong Toei,TH,13.71667,100.56667
THKYO,Ko Yao,TH,7.9,98.6
THLAS,Lang Suan,TH,9.95,99.15
THMAT,Map Ta Phut,TH,12.65,101.3
THMEK,Mae Klong,TH,13.367,99.983
THMTP,Ban Map Ta Phut,TH,12.717,101.15
THNIM,Nim Port,TH,13.6,100.567
THPHA,Phang-Nga,TH,8.4,98.517
THPKB,Pakbara,TH,6.867,99.717
THPKN,Pak Nam,TH,13.6,100.567
THPKP,Pak Phanang,TH,9.2,99.883
THPLA,Platong,TH,17.711422,103.2497556
THSAT,Sattahip,TH,12.633,100.917
THSCS,Sahathai Coastal Seaport,TH,13.65,100.533
THSGZ,Songkhla,TH,7.2,100.6
THSIC,Sichon,TH,9.017,99.917
THSIR,Si Racha,TH,13.167,100.933
THSNT,Satun,TH,6.617,100.067
THSPS,Samut Prakan Sahathai Terminal,TH,13.66667,100.53333
THSRI,Si Racha,TH,13.167,100.883
THTAC,Tha Chaleap,TH,12.583,101.883
THTHA,Tha Sala,TH,8.667,99.95
THTPP,Tungprong Pt,TH,12.7,100.833
THURT,Surat Thani,TH,9.133,99.133
TLDIL,Dili,TL,-8.55,125.5667
TMCHE,Cheleken,TM,39.4,53.1333
TMHAL,Halach,TM,38.0667,64.8833
TMKRA,Krasnovodsk,TM,40.0167,52.9667
TMKRW,Turkmenbashi,TM,40.0167,52.9667
TRAKB,Akcaabat,TR,41.0167,39.5667
TRGKV,Akcapinar,TR,37.0167,28.3667
TRAKY,Akcay,TR,39.5833,26.9333
TRAKD,Akdeniz,TR,36.8667,34.7
TRALA,Alanya,TR,36.5333,31.9833
TRAMR,Ambarli,TR,40.9667,28.7
TRANA,Anamur,TR,36.0667,32.85
TRAYT,Antalya,TR,36.8333,30.6
TRAYA,Ayancik,TR,41.9333,34.5833
TRAYV,Ayvalik,TR,39.3167,26.6833
TRBDM,Bandirma,TR,40.35,27.9667
TRBTS,Besiktas,TR,41.05,29.0167
TRBBI,Beylerbeyi,TR,41.05,29.05
TRBXN,Bodrum,TR,37.0333,27.4167
TRBOT,Botas,TR,36.8167,36.1667
TRBZC,Bozcaada,TR,39.8333,26.0667
TRBUY,Buyukcukur,TR,41.0667,35.9667
TRCAM,Camalti,TR,41.65,32.3833
TRCKZ,Canakkale,TR,40.15,26.4
TRCES,Cesme,TR,38.3167,26.3
TRCID,Cide,TR,41.9,32.9833
TRDAT,Datca,TR,36.75,27.6667
TRDIK,Dikili,TR,39.0667,26.8833
TREDO,Edremit,TR,39.5833,27.0167
TRENE,Enez,TR,40.7167,26.0667
TRERK,Erdek,TR,40.3833,27.7833
TRERE,Eregli,TR,41.2833,31.4
TREYP,Evyap Port /Kocaeli,TR,40.7667,29.7
TRFAS,Fatsa,TR,41.0333,37.4833
TRFET,Fethiye,TR,36.6167,29.1
TRFIN,Finike,TR,36.2833,30.1333
TRFRZ,Firuzkoy,TR,41.0,28.7
TRFOC,Foca,TR,38.6667,26.75
TRGEB,Gebze,TR,40.7833,29.4167
TRGEM,Gemlik,TR,40.4167,29.15
TRGZE,Gerze,TR,41.6333,36.1833
TRGIR,Giresun,TR,40.9167,38.3833
TRGCK,Gocek,TR,36.75,28.9333
TRGCA,Gokceada,TR,40.1833,25.9167
TRGOR,Gorele,TR,41.0333,39.0
TRGUL,Gulluk,TR,37.2333,27.6
TRHIS,Hisaronu,TR,36.7833,28.1333
TRHOP,Hopa,TR,41.4,41.4167
TRIDS,Icdas Jetty,TR,40.45,27.3
TRIGN,Igneada,TR,41.8833,28.0167
TRINE,Inebolu,TR,41.9667,33.7667
TRIDM,Isdemir,TR,36.7167,36.1833
TRISK,Iskenderun,TR,36.5833,36.1667
TRIST,Istanbul,TR,41.0167,28.9667
TRIZM,Izmir,TR,38.4167,27.15
TRIZT,Izmit,TR,40.7833,29.95
TRKBS,Kabatas,TR,41.0333,29.0
TRKRB,Karabiga,TR,40.4,27.3
TRKKY,Karakoy/Istambul,TR,41.0333,28.9833
TRKRS,Karasu,TR,41.0667,30.7833
TRKRT,Karatas,TR,36.55,35.3833
TRKPE,Kartepe,TR,40.7333,29.9667
TRKAS,Kas,TR,36.1833,29.6333
TRKFK,Kefken,TR,41.2,30.25
TRKMR,Kemer,TR,36.5833,30.55
TRKN2,Konak,TR,38.4,27.1
TRKFZ,Korfez,TR,40.7833,29.7333
TRKUS,Kusadasi,TR,37.85,27.25
TRMVG,Manavgat,TR,36.7667,31.45
TRMRA,Marmara Adasi,TR,40.5833,27.55
TRMRM,Marmaris,TR,36.85,28.2667
TRMER,Mersin,TR,36.7167,34.6333
TRMFZ,Mersin-Free Zone,TR,36.8,34.6333
TRMIM,Mimarsinan,TR,41.0167,28.55
TRMUD,Mudanya,TR,40.3667,28.8833
TRM47,Nusaybin,TR,37.0667,41.2167
TRORD,Ordu,TR,40.9833,37.8667
TR9AK,Pasakoy,TR,41.0167,29.2667
TRPZR,Pazar,TR,41.1667,40.8833
TRKSP,Port of Karasu,TR,41.1167,30.6667
TRRIZ,Rize,TR,41.0333,40.4833
TRRZY,Rota-Izmit Bay,TR,40.7654408,29.9408089
TRSSX,Samsun,TR,41.2833,36.3333
TRSRS,Sariseki,TR,36.671373,36.217635
TRSLE,Sile,TR,41.1667,29.6
TRSIL,Silivri,TR,41.0667,28.25
TRSIC,Sinop,TR,42.0167,35.1333
TRSUR,Surmene,TR,40.9,40.1167
TRTAS,Tasucu,TR,36.3167,33.8667
TRTEK,Tekirdag,TR,40.9667,27.5167
TRTIR,Tirebolu,TR,41.0,38.8
TRTZX,Trabzon,TR,41.0,39.7333
TRTUZ,Tuzla,TR,40.8333,29.25
TRUNY,Unye,TR,41.1333,37.2833
TRVAK,Vakfikebir,TR,41.0333,39.2667
TRYAL,Yalova,TR,40.65,29.2667
TRYIK,Yesilovacik,TR,36.2,33.6667
TRYPO,Yilport,TR,40.7667,29.5333
TRADY,Yumurtalik,TR,36.7667,35.7833
TRZON,Zonguldak,TR,41.45,31.7833
TRAKC,Akcansa,TR,40.1,26.383
TRALI,Aliaga,TR,38.799561,26.97074
TRAUT,Yenikoy-Autoport,TR,40.717,29.867
TRBBP,Baba Point,TR,39.467,26.067
TRDAR,Darica,TR,40.7738633,29.4002978
TRDIL,Diliskelesi,TR,40.776803,29.526321
TRDRC,Derince,TR,40.75,29.8333
TRDYL,Dortyol,TR,36.867,36.2
TRHAS,Haskoy,TR,41.033,28.967
TRHAY,Haydarpasa,TR,40.9968247,29.0192939
TRHER,Hereke,TR,40.793768,29.626024
TRKMX,Kumport,TR,40.95,28.817
TRLMA,Limas,TR,40.717,29.883
TRMAD,Mardas,TR,41.017,28.95
TRMAL,Maltepe,TR,40.935676,29.139722
TRMPT,Marport,TR,40.96794,28.6743808
TRNEM,Nemrut Bay,TR,38.7833,26.9166
TRSRL,Saraylar,TR,40.667,27.667
TRTUR,Turan,TR,40.1727599,29.32398
TRUSK,Uskudar,TR,41.017,29.05
TRYAR,Yarimca,TR,40.767682,29.756801
TWHUK,Hukou,TW,24.9,121.05
TWSHL,Sha-lun,TW,25.1,121.2167
TWTPE,Taipei,TW,25.0333,121.5167
TWWTU,Wu-tu,TW,25.0833,121.6667
TWKEL,Port of Keelung,TW,25.15,121.7333333
TWANG,Nangang,TW,25.083,122.0
TWBAL,Bali,TW,25.15,121.4
TWKHH,Kaohsiung,TW,22.6272784,120.3014353
TWNAN,Nantou,TW,23.9,120.683
TWTXG,Taichung,TW,24.1477358,120.6736482
TWTYN,Taoyuan,TW,24.9936281,121.3009798
UZAKT,Akaltyn,UZ,40.4972298,68.7095356
UZASA,Asaka,UZ,40.633,72.233
VNTRE,Ben Tre,VN,10.2333,106.3833
VNBLG,Binh Long Port,VN,10.5667,105.25
VNHNH,Bong Son,VN,14.4333,109.0167
VNCCU,Cai Cui Port,VN,9.9833,106.5
VNCLN,Cai Lan,VN,20.971097,107.0442957
VNTOT,Cai Mep,VN,10.3833,107.0833
VNCMT,Cai Mep International Terminal,VN,10.5167,107.0
VNBAN,Cam Lam,VN,11.9,109.15
VNVCA,Can Tho,VN,10.0333,105.7833
VNCLI,Cat Lai,VN,10.7667,106.7833
VNCLO,Culao,VN,18.8,105.7
VNDAD,Da Nang,VN,16.0667,108.2167
VNDN3,Dong Hai,VN,18.1667,106.2833
VNDNA,Dong Nai,VN,18.0833,106.3167
VNDXN,Dong Xuyen Port,VN,10.4,107.1
VNDQT,Dung Quat,VN,15.4,108.7
VNHAN,Hanoi,VN,21.0333,105.85
VNSGN,Ho Chi Minh City,VN,10.7667,106.6667
VNHLP,Hon La Port,VN,17.9333,106.5167
VNITX,ICD TRANSIMEX THU DUC,VN,10.8333,106.75
VNLAP,Long An International Port,VN,10.5333,106.7333
VNLBT,Long Binh Tan,VN,10.9333,106.8333
VNLPO,Lotus Port,VN,10.7333,106.7333
VNNCN,Nam Can Port,VN,8.8167,105.0167
VNNHD,Nam Hai Dinh Vu Port,VN,20.8167,106.85
VNNGT,Nghe Tinh,VN,20.4,106.15
VNNGH,Nghi Son,VN,19.3333,105.8333
VNNHT,Nhon Trach,VN,10.7167,106.85
VNNIH,Ninh Hoa,VN,12.4833,109.1333
VNPHG,Phuoc Long,VN,10.7167,106.95
VNIPH,Phuoc Long ICD,VN,10.7,106.95
VNQBH,Quang Binh,VN,17.5,106.3333
VNUIH,Qui Nhon,VN,13.7667,109.2167
VNRQU,Rao Qua,VN,18.45,105.3167
VNSAD,Sa Dec,VN,10.3,105.7667
VNSDP,Son Duong Port,VN,18.1,106.45
VNSON,Song Doc,VN,9.0496377,104.8337879
VNHPP,Tan Cang Hiep Phuoc Port,VN,10.6333,106.7167
VNTTD,Tan Thuan Dong,VN,10.7333,106.7167
VNTHD,Thu Dau Mot,VN,10.9667,106.65
VNVHG,Vinalines Hau Giang Port,VN,9.15,105.1333
VNVNH,Vinh,VN,18.7333,105.6667
VNVAG,Vung Ang,VN,18.0667,106.4333
VNVUT,Vung Tau,VN,10.35,107.0667
VNHPH,Port of Haiphong,VN,20.8666667,106.6833333
VNBCD,Ben Dam Con Dao Terminals,VN,8.65,106.55
VNBDG,Binh Duong Terminal,VN,10.9,106.833
VNBMH,Binh Minh,VN,10.333,105.817
VNBNG,Ben Nghe,VN,10.75,106.733
VNBNO,Ba Ngoi,VN,11.9,109.15
VNBSE,Bong Sen,VN,10.683,106.767
VNCCA,Cua Cam Terminal,VN,20.867,106.683
VNCMY,Chan May Port,VN,16.333,108.0
VNCSG,Sai Gon Port,VN,10.833,106.75
VNCUA,Cua Lo,VN,18.817,105.717
VNCUV,Cua Viet Port,VN,16.9,107.167
VNCVE,Chua Ve Terminal,VN,20.867,106.7
VNDMO,Dam Mon,VN,12.667,109.4
VNDTH,Dong Thap,VN,10.483,105.567
VNDTS,Tien Sa Terminal,VN,16.117,108.2
VNDVU,Dinh Vu Terminal,VN,20.9,106.767
VNDXA,Doan Xa Terminal,VN,20.867,106.683
VNGDA,Go Dau A Terminal,VN,10.65,107.017
VNGDB,Go Dau B Terminal,VN,10.617,107.017
VNHAP,Hai Phong,VN,20.86667,106.66667
VNHCH,Hon Chong,VN,12.2729701,109.2064297
VNHLG,Ha Long,VN,20.95,107.067
VNHON,Hongai,VN,20.9536125,107.0687079
VNHSN,Hai Son,VN,16.1,108.233
VNITF,Interflour Cai Mep,VN,10.53333,107.01667
VNKYH,Ky Ha Terminal,VN,15.483,108.683
VNKYQ,Ky Ha Quang Nam Terminal,VN,15.467,108.683
VNLBN,Long Binh,VN,11.25,107.5
VNLTH,Long Thanh,VN,10.783,106.95
VNMTH,My Thoi,VN,10.35,106.35
VNNVT,Nguyen Van Troi Port,VN,16.05,108.217
VNOCL,Cat Lai Oil Port,VN,10.733,106.767
VNONB,Nha Be Oil Port,VN,10.7,106.733
VNOSP,Saigon Petro Oil Terminal,VN,10.75,106.783
VNPHB,Phu Bai,VN,16.367,107.733
VNPHU,Phu My,VN,10.7161298,106.7411559
VNPQC,Phu Quoc,VN,10.217,103.967
VNQNH,Quang Ninh,VN,17.4,106.633
VNQNT,Tan Cang Qui Nhon,VN,13.7718892,109.2375596
VNRDG,Rang Dong,VN,19.9903705,106.140451
VNSIP,SP-PSA International Port,VN,10.56667,107.01667
VNSIT,Saigon ITV/Phu My,VN,10.6,107.017
VNSPC,Hiep Phuoc Port,VN,10.633,106.75
VNSTR,ICD Sotrans,VN,10.817,106.75
VNTCG,Tan Cang,VN,10.7947506,106.7219896
VNTCN,Tan Canh,VN,14.65,107.833
VNTCT,Tan Cang - Cai Mep Terminal,VN,10.53333,107.01667
VNTHU,Thuan An,VN,15.5,108.667
VNTMT,Tan Cang - Mien Trung Terminal,VN,13.767,109.233
VNTNA,Thi Nai Port,VN,13.767,109.25
VNTNO,Tra Noc,VN,10.1,105.7
VNTPP,Thanh Phuoc Port,VN,11.067,106.8
VNTVN,Transvina Terminal,VN,20.867,106.683
VNVCH,Vat Cach,VN,20.883,106.6
VNVCT,VTB & CN Tau Can Tho,VN,10.06667,105.73333
VNVLG,Vinh Long,VN,10.233,105.967
VNVPH,Van Phong,VN,20.85,106.633
VNVRO,Vung Ro,VN,12.85,109.417
VNVSS,Vinashin Shipyard,VN,12.483,109.283
YEHOD,Hodeidah,YE,14.8333,42.9
YELAD,Little Aden,YE,12.7333,44.8667
YEPRM,Perim Island,YE,12.65,43.4167
YESCT,Suqutra,YE,12.5,54.0
YEADE,Aden,YE,12.7854969,45.0186548
YEMKX,Mukalla,YE,14.5404328,49.127197
AMJER,Jermuk,AM,39.8172259,45.6727334
NPLLU,Nawalparasi,NP,27.6571887,84.059029
AGFAM,Falmouth,AG,17.0167,-61.7833
AGPHM,Parham,AG,17.0833,-61.75
AGSJO,Saint John's,AG,17.1167,-61.85
AGANU,Antigua,AG,17.0746557,-61.8175207
AGBBQ,Barbuda,AG,17.626798,-61.7707288
AIMBB,Meads Bay Beach,AI,18.1667,-63.1333
AIBLP,Blowing Point,AI,18.177343,-63.093518
AIFOR,The Forest,AI,18.1939817,-63.0456652
AISOM,Sombrero,AI,18.6,-63.467
AIWLL,Wall Blake,AI,18.205021,-63.054302
AWAUA,Aruba,AW,12.5,-69.9667
AWBAR,Barcadera,AW,12.4833,-69.9833
AWORJ,Oranjestad,AW,12.5092044,-70.0086306
BBBGI,Bridgetown,BB,13.0968511,-59.6144819
BLSBH,Saint-Barthelemy,BL,17.9,-62.85
BLGUS,Aeroport Gustaf III - Saint-Barthel,BL,17.9,-62.85
BMSEV,Devonshire,BM,32.3,-64.75
BMSGE,Saint George,BM,32.3833,-64.6833
BMSAN,Sandys,BM,32.3,-64.8667
BMSOU,Southampton,BM,32.25,-64.85
BMBDA,Hamilton,BM,32.2945837,-64.7858887
BMFPT,Freeport,BM,32.3220181,-64.8373657
BQBON,Bonaire,NL,12.1167,-68.2667
BQRIN,Dorp Rincon,NL,12.2333,-68.3333
BQKRA,Kralendijk,NL,12.15,-68.2667
BQSAB,Saba,NL,17.6333,-63.2333
BQEUX,Sint Eustatius,NL,17.4833,-62.9667
BSBKC,Bock Cay,BS,23.8167,-76.1667
BSCEL,Cape Eleuthera,BS,24.9314461,-76.1899661
BSCOX,Congo Town,BS,24.15,-77.5333
BSGOC,Gorda Cay,BS,26.0833,-77.5333
BSEXU,Great Exuma Island,BS,23.5333,-75.8333
BSGHC,Great Harbour Cay,BS,25.75,-77.8333
BSGTC,Green Turtle Cay,BS,26.75,-77.3333
BSHBI,Harbour Island,BS,25.5,-76.6333
BSHMC,Little San Salvador,BS,24.5833,-75.9167
BSMHH,Marsh Harbour,BS,26.5333,-76.9667
BSNAS,Nassau,BS,25.0833,-77.35
BSRSD,Rock Sound,BS,24.9,-76.2
BSSML,Stella Maris,BS,23.6,-75.3
BSTBI,The Bight,BS,24.3167,-75.4
BSWTD,West End,BS,26.6833,-78.9667
BSCBT,Cockburn Town,BS,24.033,-74.517
BSCOC,Little Stirrup Cay,BS,25.817,-77.933
BSGSC,Great Stirrup Cay,BS,25.833,-77.9
BSLUC,Lucaya,BS,26.517,-78.633
BZBAR,Barranco,BZ,16.0,-88.9167
BZDGA,Dangriga,BZ,16.9667,-88.2167
BZBZE,Belize City,BZ,17.5045661,-88.1962133
CAALK,Adlavik,CA,54.9167,-58.9167
CAAGU,Aguathuna,CA,48.55,-58.7667
CAANZ,Anzac,CA,56.4333,-111.0333
CAARB,Arctic Bay,CA,73.0333,-85.1667
CANWP,Argentia,CA,47.3,-54.0
CAARI,Arichat,CA,45.5167,-61.0167
CAARC,Arnold's Cove,CA,47.7667,-53.9833
CAYEK,Arviat,CA,61.1,-94.05
CAASQ,Asquith,CA,52.1167,-107.2167
CAALV,Atholville,CA,47.9833,-66.7167
CAAVO,Avondale,CA,47.4167,-53.2
CAAVP,Avonport,CA,45.1,-64.25
CABVE,Baie Verte,CA,49.9167,-56.1833
CABJO,Baie-Johan-Beetz,CA,50.3,-62.8333
CABLK,Baker Lake,CA,64.3167,-96.0333
CABAA,Bala,CA,45.0,-79.6
CABDR,Bald Rock,CA,44.4667,-63.5667
CANTR,Bantry,CA,50.4833,-111.7333
CABAN,Barrington,CA,43.5667,-65.5667
CABBU,Bay Bulls,CA,47.3333,-52.8333
CABYR,Bay Roberts,CA,47.5833,-53.3
CABPO,Beach Point,CA,46.0167,-62.4833
CABEA,Beaver Cove,CA,50.5167,-126.8667
CABEC,Becancour,CA,46.3333,-72.4333
CABDF,Bedford,CA,44.7167,-63.6833
CABFR,Beresford,CA,47.6833,-65.7
CABOB,Bobcaygeon,CA,44.5333,-78.55
CABOR,Borden,CA,46.25,-63.7
CABWD,Botwood,CA,49.15,-55.3667
CABUE,Bouctouche,CA,46.4667,-64.7167
CABC2,Bow City,CA,50.4167,-112.2667
CABNI,Bowen Island,CA,49.3667,-123.3333
CABRD,Brentwood Bay,CA,48.5833,-123.45
CABUA,Bull Arm,CA,47.8333,-53.8667
CABUO,Burgeo,CA,47.6,-57.6333
CABUI,Burin,CA,47.05,-55.1833
CABUS,Burnside,CA,48.7,-53.8
CABIN,Burrard Inlet,CA,49.3,-123.1833
CAYCB,Cambridge Bay,CA,69.1167,-105.0833
CACAM,Campbell River,CA,50.0167,-125.25
CACBF,Campbellford,CA,44.3,-77.7833
CACAH,Canso,CA,45.3333,-61.0
CACAC,Cap-Chat,CA,49.0833,-66.6833
CACPY,Cape Ray,CA,47.6333,-59.3
CACSI,Cap-St-Ignace,CA,47.0333,-70.45
CACBY,Carberry,CA,49.8667,-99.35
CACRB,Carbonear,CA,47.7333,-53.25
CACMV,Carmanville,CA,49.3667,-54.2667
CACAT,Catalina,CA,48.5167,-53.0833
CACIL,Change Islands,CA,49.6667,-54.4167
CAPBQ,Channel-Port aux Basques,CA,47.5667,-59.15
CACHA,Charlottetown,CA,46.2333,-63.1333
CARRE,Chateau-Richer,CA,46.9667,-71.0167
CAYCS,Chesterfield Inlet,CA,63.3333,-90.7
CACTR,Chestermere,CA,51.0333,-113.8167
CACHT,Cheticamp,CA,46.6167,-61.0167
CACHV,Churchill,CA,58.7667,-94.1833
CACLE,Clarenville,CA,48.15,-53.9667
CACLH,Clark's Harbour,CA,43.45,-65.6333
CACWT,Clearwater,CA,51.65,-120.0333
CACVA,Cleveland,CA,44.65,-64.0
CALLF,Clifford,CA,43.9667,-80.9667
CACAU,Coal Harbour,CA,49.2890842,-123.1224997
CACBG,Cobourg,CA,43.9667,-78.1667
CACYP,Coley's Point,CA,47.5833,-53.2667
CACBC,Come By Chance,CA,47.85,-53.9833
CACSJ,Coniston,CA,46.4833,-80.85
CAYZS,Coral Harbour,CA,64.1333,-83.1667
CACBK,Corner Brook,CA,48.95,-57.9333
CACWH,Cow Head,CA,49.9,-57.7833
CACRA,Cranford,CA,49.75,-112.35
CACCI,Crystal City,CA,49.1333,-98.95
CAYDH,Daniels Harbour,CA,50.2333,-57.5833
CADEI,Deer Island,CA,44.9667,-66.9667
CADEL,Delta,CA,49.0833,-123.0
CADSA,Denman Island,CA,49.55,-124.8
CADIL,Dildo,CA,47.55,-53.55
CADWL,Dingwall,CA,46.9,-60.4667
CADLN,Dublin,CA,43.5,-81.2833
CAETA,East Angus,CA,45.4833,-71.6667
CAXVX,Emerald Park,CA,50.7333,-104.6333
CAEND,Endako,CA,54.0833,-125.0167
CAEBY,English Bay,CA,49.2667,-123.1667
CAETN,Etang-du-Nord,CA,47.3667,-61.9333
CAETZ,Etzikom,CA,49.4833,-111.1
CAFLR,Fall River,CA,44.8167,-63.6167
CAFOG,Fogo,CA,49.7167,-54.2833
CAZFT,Forest,CA,43.1,-82.0
CAFFS,Fort Frances,CA,48.6,-93.4
CAFKN,Fort Franklin,CA,65.1833,-123.4167
CAFLY,Fort Langley,CA,49.1667,-122.5667
CAFMA,Fort MacKay,CA,57.1833,-111.6333
CAFWL,Fort William,CA,48.4,-89.2333
CAFOR,Fortune,CA,47.0667,-55.8333
CAFWS,Fraser Wharves,CA,50.9667,-119.2
CAFSD,Fraser-Surrey Docks,CA,49.1167,-122.7333
CAFRE,Fredericton,CA,45.95,-66.65
CAGLT,Galt,CA,43.35,-80.3
CAGAN,Gander,CA,48.95,-54.55
CAGPE,Gaspe,CA,48.8333,-64.4833
CAYHK,Gjoa Haven,CA,68.6167,-95.8333
CAGLB,Glace Bay,CA,46.2,-59.9667
CAGOO,Goose Bay,CA,53.4,-60.1667
CAGRB,Grand Bank,CA,47.1,-55.7833
CAGMA,Grand Manan,CA,44.7,-66.8
CAEDI,Grande-Digue,CA,46.2833,-64.55
CAYGZ,Grise Fiord,CA,76.4167,-82.95
CAHCC,Hacketts Cove,CA,44.5667,-63.9333
CAOON,Halton Hills,CA,43.6167,-79.95
CAHMP,Hampden,CA,49.5333,-56.8667
CAHVR,Hanover,CA,44.1333,-81.0167
CAHHB,Hants Harbour,CA,48.0167,-53.2667
CAHBR,Harbour Breton,CA,47.4833,-55.8333
CAHRE,Harbour Grace,CA,47.6833,-53.25
CAHAR,Harriet Harbour,CA,56.130366,-106.346771
CAHON,Harwood,CA,44.1333,-78.1833
CAHEB,Hebertville,CA,48.3833,-71.6833
CAHBN,Hebron,CA,58.2,-62.6333
CAHMM,Hemmingford,CA,45.05,-73.6
CAHLI,Herschel Island,CA,69.5667,-139.0667
CAHIB,Hibernia,CA,44.3333,-64.9833
CAHOD,Holyrood,CA,47.3833,-53.1333
CAHOP,Hopedale,CA,55.45,-60.2167
CAHRF,Horsefly,CA,52.3333,-121.4167
CAIGL,Igloolik,CA,69.3667,-81.8167
CASIM,Imperial,CA,51.3333,-105.4333
CAIAM,Indian Arm,CA,49.3667,-122.8667
CAIKM,Inkerman,CA,45.0333,-75.4
CAIVM,Invermere,CA,50.5167,-116.0333
CAIQL,Iqaluit,CA,63.7333,-68.5
CAIVN,Irvine,CA,49.95,-110.2667
CAISL,Island Lake,CA,53.8667,-94.6667
CAJAC,Jackson Arm,CA,49.8667,-56.8
CAJEG,Jemseg,CA,45.8167,-66.1
CAKLO,Kaslo,CA,49.9,-116.9167
CAKHO,Key Harbour,CA,45.8833,-80.7333
CAKNE,Kinnear's Mills,CA,46.2167,-71.3833
CAKOV,Kovik Bay,CA,61.55,-77.7333
CAFCM,Kuujjuaq,CA,58.1,-68.4
CALMW,La Salle,CA,49.7,-97.2667
CAAAB,Lac La Biche,CA,54.7667,-111.95
CALDT,Lac-Drolet,CA,45.7167,-70.85
CALSE,Lakeshore,CA,42.2833,-82.7333
CALDS,Lansdowne,CA,52.2167,-87.8833
CALB3,L'Anse-a-Beaufils,CA,48.4667,-64.3
CAALO,L'Anse-au-Loup,CA,51.5167,-56.8333
CALZV,Lantzville,CA,49.25,-124.0833
CALVH,Laverlochere,CA,47.4167,-79.2833
CAMHN,Les Mechins,CA,49.0,-66.9667
CALEV,Levis,CA,46.8,-71.1667
CALWP,Lewisporte,CA,49.2333,-55.0667
CAILS,L'Ile-des-Soeurs (Nuns Island),CA,45.3,-74.0333
CALOB,Lobo,CA,43.0,-81.4167
CALCP,Lockeport,CA,43.7,-65.1167
CALMD,Lomond,CA,49.45,-57.7667
CALOH,Long Harbour,CA,47.4333,-53.8
CALOP,Long Pond,CA,48.0,-55.9167
CALOU,Louisbourg,CA,45.9167,-59.9833
CALWB,Lowbanks,CA,42.8667,-79.45
CALCV,Lower Cove,CA,48.5167,-59.0
CALWH,Lower Woods Harbour,CA,43.5167,-65.7333
CAMAB,Mabou,CA,46.0667,-61.3833
CAMAG,Magog,CA,45.2667,-72.15
CAMBR,Main Brook,CA,51.1833,-56.0167
CAMTI,Malartic,CA,48.1333,-78.1167
CAYMH,Mary's Harbour,CA,52.3167,-55.8333
CAMTN,Marystown,CA,47.1667,-55.1667
CAMFD,Meaford,CA,44.6,-80.6
CAMGH,Merigomish,CA,45.6167,-62.4167
CAMSW,Metiskow,CA,52.4,-110.6333
CAMLK,Millbank,CA,47.05,-65.45
CAMNI,Milne Inlet Port,CA,72.2467491,-80.5453401
CAMYO,Mindemoya,CA,45.7333,-82.1667
CAMSV,Minesville,CA,44.6833,-63.3667
CAMTO,Minto,CA,43.9134019,-80.8717169
CAMIB,Mission,CA,49.1333,-122.3
CAMOL,Mont-Louis,CA,49.2167,-65.75
CAMRE,Montreal-Est,CA,45.6333,-73.5
CAYMD,Mould Bay,CA,76.2333,-119.35
CAMUS,Musquodoboit Harbour,CA,44.7833,-63.1333
CANAI,Nain,CA,56.55,-61.6833
CANAK,Nakusp,CA,50.2333,-117.8
CANAN,Nanticoke,CA,42.8,-80.0667
CANMT,Naramata,CA,49.6,-119.5833
CANS3,Neil's Harbour,CA,46.25,-60.55
CANLS,Nelson,CA,49.4833,-117.3
CAEWT,Newton,CA,49.9333,-98.0667
CANOL,Niagara-on-the-Lake,CA,43.25,-79.0667
CANCV,Norman's Cove,CA,47.55,-53.6667
CANRB,North Bend,CA,49.8833,-121.4667
CANDL,Notre-Dame-de-Lourdes,CA,49.5333,-98.55
CANBC,Notre-Dame-du-Bon-Conseil,CA,46.0,-72.35
CAOAJ,Oakville,CA,49.9167,-98.0
CAODE,Odessa,CA,44.2667,-76.7167
CAOVR,Oliver,CA,49.1667,-119.55
CAOLS,Orleans,CA,45.45,-75.5333
CAPHL,Philipsburg,CA,45.0333,-73.0667
CAPSV,Pleasantville,CA,44.3333,-64.4333
CAPHM,Pohenegamook,CA,47.4833,-69.2833
CAPEW,Point Edward,CA,43.0,-82.4
CAPTU,Point Tupper,CA,45.6,-61.3667
CAPNO,Pointe Noire,CA,50.15,-66.4833
CAPXT,Pointe-aux-Trembles,CA,45.65,-73.4833
CAPOI,Pointe-Claire,CA,45.4333,-73.7333
CAPFT,Pointe-Fortune,CA,45.5667,-74.3667
CAPAP,Port au Port,CA,48.55,-58.7167
CAPEL,Port Elgin,CA,46.0333,-64.0833
CAPMA,Port McNeill,CA,50.5833,-127.1
CAPWE,Port Weller,CA,43.2167,-79.2167
CAPAF,Port-Alfred,CA,48.3333,-70.8833
CAPCA,Port-Cartier,CA,50.0167,-66.8667
CAPDL,Port-Daniel,CA,48.1833,-64.9833
CAGPD,Port-Daniel - Gascons,CA,48.1667,-64.9167
CAPME,Port-Menier,CA,49.8167,-64.35
CACQ5,Preissac,CA,48.4,-78.3667
CAVOS,Prevost,CA,45.8667,-74.0833
CAPPT,Prospect,CA,44.4667,-63.7833
CARAM,Ramea,CA,47.5167,-57.4167
CARIT,Rankin Inlet,CA,62.8167,-92.0667
CARDL,Riviere-du-Loup,CA,47.8333,-69.5333
CARTB,Robert's Bank,CA,49.0667,-123.1667
CARSV,Robertsonville,CA,46.1333,-71.2167
CARCD,Rockwood,CA,43.6167,-80.1333
CAABR,Rocky View County,CA,51.1833,-113.9333
CAROD,Roddickton,CA,50.85,-56.1167
CARPO,Rossport,CA,48.8333,-87.5167
CASAG,Saguenay,CA,48.4167,-71.0667
CAS8A,Saint Albert,CA,53.6333,-113.6333
CASAT,Saint-Anthony,CA,51.3833,-55.6
CASTD,Saint-Armand,CA,45.0167,-73.0333
CASAU,Saint-Augustin,CA,51.2333,-58.65
CABOJ,Saint-Bruno-Lac-Saint-Jean,CA,48.4667,-71.6667
CASCA,Saint-Catharines,CA,43.1667,-79.2333
CAZCR,Saint-Charles-sur-Richelieu,CA,45.6833,-73.1833
CASDN,Saint-Damien-de-Brandon,CA,46.3333,-73.4833
CASCT,Sainte-Catherine,CA,45.4,-73.5833
CASFI,Sainte-Famille,CA,46.9667,-70.9667
CASEU,Saint-Eustache,CA,45.5667,-73.9
CAST3,Saint-Felix-de-Kingsey,CA,45.8,-72.1833
CASFX,Saint-Felix-de-Valois,CA,46.1667,-73.4
CASFR,Saint-Francois-du-Lac,CA,46.0667,-72.8333
CAW4C,Saint-Gedeon,CA,48.4833,-71.7833
CAXZC,Saint-Isidore d'Auckland,CA,45.2667,-71.5167
CASJB,Saint-John,CA,45.2667,-66.0667
CASJF,Saint-John's,CA,47.5667,-52.7333
CAXJH,Saint-Joseph-de-Beauce,CA,46.3,-70.8667
CASLT,Saint-Lambert,CA,45.4833,-73.5
CASLW,Saint-Lawrence,CA,46.9,-55.4
CASMS,Saint-Marys,CA,46.9167,-53.5833
CASPA,Saint-Pascal,CA,47.5333,-69.8
CASPI,Saint-Pierre,CA,45.45,-73.6333
CASRO,Saint-Romuald-d'Etchemin,CA,46.75,-71.2333
CASST,Saint-Shotts,CA,46.6333,-53.6
CAZTI,Saint-Tite,CA,46.7333,-72.5667
CASZT,Saint-Zotique,CA,45.2333,-74.25
CASBH,Sandy Beach,CA,48.8167,-64.4167
CASF2,Sanford,CA,49.6667,-97.4333
CASYW,Sayward,CA,50.35,-125.9167
CASED,Sedgewick,CA,52.7667,-111.6833
CASEM,Seldom,CA,49.6,-54.1667
CASEI,Sept-Iles,CA,50.2,-66.3833
CASEB,Seven Islands Bay,CA,59.4167,-63.75
CASNV,Shaunavon,CA,49.65,-108.4
CASHH,Sheet Harbour,CA,44.9333,-62.5333
CASLB,Shelburne,CA,44.0667,-80.2
CASIO,Sicamous,CA,50.8333,-118.9833
CASPN,Spaniards Bay,CA,47.6167,-53.3
CASLK,Split Lake,CA,56.25,-96.1
CASPD,Springdale,CA,49.4833,-56.1
CASTV,Stephenville,CA,48.55,-58.5667
CASYI,Stoney Island,CA,43.4667,-65.5667
CASMT,Stormont,CA,45.2167,-61.7333
CASYL,Sylvan Lake,CA,52.3167,-114.0833
CATHA,Thamesford,CA,43.05,-80.9833
CATWN,Thawwassen,CA,49.0,-123.0667
CATTL,Thetis Island,CA,48.9833,-123.6833
CATHH,Three Hills,CA,51.7,-113.2667
CATCV,Tilt Cove,CA,49.8833,-55.6167
CATJN,Tring Jonction,CA,46.2667,-71.0
CATRO,Trochu,CA,51.8333,-113.2333
CATWI,Twillingate,CA,49.65,-54.75
CAUCL,Ucluelet,CA,48.9333,-125.5167
CAUPT,Upton,CA,45.6333,-72.6833
CAVLF,Valleyfield,CA,45.25,-74.1333
CAVCH,Vercheres,CA,45.7667,-73.35
CAVIC,Victoria,CA,48.4333,-123.35
CAVOB,Voisey's Bay,CA,56.25,-61.85
CAWTN,Walton,CA,45.2167,-64.0167
CAWVR,West Vancouver,CA,49.3333,-123.15
CAWTO,Westport,CA,44.6833,-76.4
CAYXN,Whale Cove,CA,62.1667,-92.5833
CAWWO,Wildwood,CA,53.6167,-115.2333
CAYWM,Williams Harbour,CA,52.55,-55.7833
CAWDR,Windsor,CA,44.9833,-64.1333
CAZYE,Yamachiche,CA,46.2833,-72.8333
CATOR,Port of Toronto,CA,43.6333333,-79.3833333
CAMTR,Port of Montreal,CA,45.5,-73.5833333
CAABL,Amberly,CA,44.05,-81.717
CABCK,Brockville,CA,44.5895244,-75.6842858
CABKA,Brocket,CA,49.55,-113.767
CABLD,Belwood,CA,43.767,-80.333
CABRL,Burlington,CA,43.325794,-79.800948
CABRW,Bridgewater,CA,44.3721167,-64.5208798
CABSK,Blackstock,CA,44.1,-78.783
CABUK,Burks Falls,CA,45.633,-79.45
CABWV,Bowmanville,CA,43.9126042,-78.688019
CACCV,Comfort Cove,CA,49.333,-54.867
CACHI,Chicoutimi,CA,48.3516735,-71.1385136
CACHN,Chatham,CA,47.0451445,-65.3702403
CACOC,Contrecoeur,CA,45.8654102,-73.2412825
CACQT,Conquitlam,CA,49.233,-122.817
CADCS,Dorchester,CA,42.983,-81.067
CADHS,Dalhousie,CA,44.6375134,-63.5923004
CAEDC,Edwards Cove,CA,56.833,-62.5
CAESQ,Esquimalt,CA,48.435842,-123.411234
CAGDE,Grand-Mere,CA,46.63333,-72.68333
CAGNN,Rockport,CA,44.55,-76.267
CAHAL,Halifax,CA,44.6487635,-63.5752387
CAHAM,Hamilton,CA,43.2557206,-79.8711024
CAKEE,Keene,CA,44.25,-78.167
CAKKR,Kinkora,CA,46.3228776,-63.6026862
CAKVL,Kingsville,CA,42.0362841,-82.7389809
CALAC,Lachine/Montreal,CA,45.441347,-73.6885847
CALIQ,L'Isletville,CA,47.1,-70.35
CALMN,Leamington,CA,42.0531634,-82.5998874
CAMBT,Riverton,CA,51.0,-97.0
CAMNT,Moncton,CA,46.088778,-64.779383
CANAF,North Arm Fraser,CA,49.1761138,-123.1577516
CANWE,New Westminster,CA,49.2057179,-122.910956
CAOPE,Port Hope,CA,43.949164,-78.2934616
CAPIC,Picton,CA,44.0073128,-77.1423692
CAPRG,Prince George,CA,53.918241,-122.749702
CAPRR,Prince Rupert,CA,54.309805,-130.33721
CAPTH,Penetanguishene,CA,44.767,-79.933
CAQCH,Queen Charlotte,CA,53.25,-132.067
CAQLE,Les Escoumins,CA,48.35,-69.417
CAQUE,Quebec,CA,46.831454,-71.192992
CARBN,Robinsons,CA,48.25,-58.783
CAREL,La Relance,CA,50.15,-66.45
CARRC,Red Rock,CA,48.95,-88.283
CASCP,Saint-Christophe-d'Arthabaska,CA,46.033,-71.917
CASDM,Sainte-Anne-des-Monts,CA,49.117,-66.483
CASQA,Squamish,CA,49.7016339,-123.1558121
CASRA,Saint-Roch-de-l'Achigan,CA,45.85,-73.583
CASRS,Saint-Peters,CA,45.65,-60.867
CASTC,Stoney Creek,CA,43.2272182,-79.7195586
CASTK,Stockton,CA,49.583,-99.45
CASUY,Surrey,CA,49.183333,-122.85
CASVD,Sainte-Victoire-de-Sorel,CA,46.0,-73.167
CATBY,Thornbury,CA,44.55,-80.45
CAVAN,Vancouver,CA,49.303555,-123.0475
CAVIH,Victoria Harbour,CA,44.75,-79.767
CAWAL,Wallaceburg,CA,42.5926445,-82.3882529
CAWEL,Welland,CA,42.9921579,-79.2482555
CAWHH,Whiffen Head,CA,47.75,-54.033
CAWHI,Whitby,CA,43.8975446,-78.9429329
CRABG,Abangares,CR,10.2833,-84.95
CRCAB,Cabo Blanco,CR,9.9333,-85.0
CRCAI,Caimital,CR,10.0667,-85.4667
CRCAL,Caldera,CR,9.95,-84.7167
CRCOM,Chomes,CR,10.05,-84.9167
CRCIR,Ciruelas,CR,10.5,-85.35
CRCYL,Coyol,CR,10.0,-84.25
CRCRR,Curridabat,CR,9.9167,-84.0333
CRCUT,Cutris,CR,10.6833,-84.3667
CRFIL,Filadelfia,CR,10.45,-85.5667
CRFPN,Fraijanes,CR,10.15,-84.2
CRGLF,Golfito,CR,8.65,-83.15
CRGDP,Golfo de Papagayo,CR,10.6,-85.6833
CRGDA,Guardia,CR,10.5667,-85.6
CRGUA,Guatuso,CR,10.6667,-84.8167
CRJIC,Jicaral,CR,9.9667,-85.1167
CRLAF,La Fortuna,CR,10.4833,-84.65
CRTIG,La Tigra,CR,9.9333,-85.15
CRMOB,Moin,CR,10.0,-83.0833
CRMUE,Muelle de San Carlos,CR,10.4667,-84.4667
CRNAN,Nandayure,CR,10.0333,-85.2
CRNAR,Naranjo,CR,10.1,-84.3833
CRCDN,Neily,CR,8.65,-82.9333
CRORO,Orotina,CR,9.9,-84.5333
CRPAN,Palmar Norte,CR,8.9667,-83.4667
CRPAR,Parrita,CR,9.5167,-84.3167
CRPIT,Pital,CR,9.7333,-85.45
CRPTC,Puerto Caldera,CR,9.95,-84.7167
CRLIO,Puerto Limon,CR,10.0,-83.0333
CRVDT,Puerto Viejo,CR,9.65,-82.7667
CRPUM,Punta Morales,CR,10.0667,-84.9667
CRPAS,Puntarenas,CR,9.9667,-84.8333
CRQGG,Quebrada Grande,CR,10.4333,-84.95
CRRCD,Rio Cuarto,CR,10.35,-84.2333
CRRIO,Rio Frio,CR,9.7833,-85.1833
CRRJI,Rio Jimenez,CR,10.25,-83.6
CRSAM,Samara,CR,9.8833,-85.5333
CRSAN,San Ignacio de Acosta,CR,9.8,-84.1667
CRSJO,San Jose,CR,9.9333,-84.0833
CRMTZ,San Marcos de Tarrazu,CR,9.6667,-84.0333
CRSSP,San Pedro de Poas,CR,10.0833,-84.25
CRSMP,Santa Maria/Pocosol,CR,10.6167,-84.5167
CRSRP,Santa Rosa/Pocosol,CR,10.3667,-84.6167
CRSPI,Sarapiqui,CR,10.4833,-84.0167
CRSRI,Sarchi,CR,10.0833,-84.35
CRSIX,Sixaola/Talamanca,CR,9.5167,-82.6167
CRTRE,Tres Rios,CR,9.9,-85.1833
CRTUA,Turrubares,CR,9.6167,-84.5167
CRZAR,Zarcero / Naranjo,CR,10.1833,-84.4
CRCTC,Moravia,CR,10.0101333,-84.0114544
CRHSA,Horluetas/Sarapiqui,CR,10.483,-84.017
CRPMN,Puerto Moin,CR,9.9924257,-83.0951852
CRPOA,Poas,CR,10.033,-84.333
CRSRG,San Rafael Guatuso,CR,10.667,-84.817
CUBHO,Bahia Honda,CU,22.9,-83.1667
CUBAN,Banes,CU,20.9667,-75.7167
CUBOG,Boca Grande,CU,21.5833,-78.6667
CUBUF,Bufadero,CU,21.5667,-77.2333
CUCAB,Cabanas,CU,22.9833,-82.9167
CUCAI,Caibarien,CU,22.5167,-79.4667
CUCMW,Camaguey,CU,21.3833,-77.9167
CUCAR,Cardenas,CU,23.0333,-81.2
CUCAS,Casilda,CU,21.7667,-80.0
CUCEI,Ceiba Hueca,CU,20.2167,-77.3333
CUGIB,Gibara,CU,21.1,-76.1333
CUJUC,Jucaro,CU,21.6333,-78.85
CUHAV,La Habana,CU,23.1167,-82.35
CUMAR,Mariel,CU,23.0,-82.75
CUMEL,Media Luna,CU,20.15,-77.4333
CUNIQ,Niquero,CU,20.05,-77.5833
CUNVT,Nuevitas,CU,21.55,-77.2667
CUPAL,Palo Alto,CU,21.6,-78.9667
CUVIT,Puerto da Vita,CU,21.0833,-75.9667
CUPAS,Puerto de Pastelillo,CU,21.55,-77.2167
CUMNT,Puerto Manati,CU,21.3667,-76.8333
CUPPA,Puerto Padre,CU,21.2,-76.6
CUPTA,Puerto Tarafa,CU,21.5667,-77.25
CUSDT,Sagua de Tanamo,CU,20.5833,-75.2333
CURSL,Sagua la Grande,CU,22.8,-80.0667
CUTDZ,Tunas de Zaza,CU,21.6333,-79.55
CUSCU,Santiago de Cuba,CU,20.01693,-75.8301537
CWBUB,Bullenbaai,CW,12.1667,-69.0
CWCRB,Caracas Baai,CW,12.0667,-68.85
CWCUR,Curacao,CW,12.1667,-69.0
CWFUI,Fuikbaai,CW,12.05,-68.8167
CWSMB,Sint Michielsbaai,CW,12.15,-68.9833
CWWIL,Willemstad,CW,12.1,-68.9167
DMPOR,Portsmouth,DM,15.5667,-61.45
DMRSU,Roseau,DM,15.3091676,-61.3793554
DOAZU,Azua,DO,18.45,-70.7333
DOBAN,Bani,DO,18.2833,-70.3333
DOBQL,Barcequillo,DO,18.4333,-70.0333
DOBAV,Bavaro,DO,18.6853385,-68.4501446
DOCDC,Casa de Campo,DO,18.4,-68.9
DOCAI,Catalina Island,DO,18.3667,-69.0
DOCAU,Caucedo,DO,18.4167,-69.6333
DOCAL,Cayo Levantado,DO,19.2,-69.3167
DOINA,Haina,DO,18.4167,-69.9833
DOHIG,Higuey,DO,18.45,-70.2667
DOMAN,Manzanillo,DO,19.7,-71.75
DOOCO,Ocoa Bay,DO,18.6167,-71.0833
DOPAL,Puerto Palenque,DO,18.2333,-70.15
DOPVA,Puerto Viejo de Azua,DO,18.3333,-70.8333
DOSNX,Sabana de la Mar,DO,19.0667,-69.3833
DOSFN,San Francisco de Macoris,DO,19.3,-70.25
DOSPM,San Pedro de Macoris,DO,18.45,-69.3
DOSNZ,Sanchez,DO,19.2333,-69.6167
DOSDQ,Santo Domingo,DO,18.4667,-69.9
DOVAL,Villa Altagracia,DO,18.6667,-70.1667
DOBCC,Boca Chica,DO,18.452944,-69.607337
DOHAI,Rio Haina,DO,18.6003917,-70.1473403
DOPOP,Puerto Plata,DO,19.7807686,-70.6871091
DOSTI,Santiago de los Caballeros,DO,19.466667,-70.7
GLKAN,Kangerlussuaq Havn,GL,66.9667,-50.9333
GLKUN,Kuummiut,GL,65.8667,-37.0167
GLGOH,Nuuk (Godthaab),GL,64.1833,-51.75
GLSEQ,Seqi Olivine Mine,GL,64.9667,-51.5667
GLAGM,Tasiilaq,GL,65.6,-37.6333
GLTNT,Tiniteqilaaq,GL,65.9,-37.8167
GLTOV,Toqqusaq,GL,64.8667,-52.2
GLJAV,Ilulissat (Jakobshavn),GL,69.2198118,-51.0986031
GLJEG,Aasiaat (Egedesminde),GL,68.7069766,-52.8591222
GLJFR,Paamiut (Fredrikshaab),GL,61.9941151,-49.6665709
GLJHS,Sisimiut (Holsteinsborg),GL,66.9394722,-53.6733857
GLJJU,Qaqortoq (Julianehaab),GL,60.7189864,-46.0353458
GLJNN,Nanortalik,GL,60.1424955,-45.2394951
GLJSU,Maniitsoq (Sukkertoppen),GL,65.4076761,-52.9005718
GLKUL,Kullorsuaq,GL,74.583,-57.2
GPBMH,Baie-Mahault,GP,16.2667,-61.5833
GPBBR,Basse-Terre,GP,16.0,-61.7167
GPCBE,Capesterre-Belle-Eau,GP,16.05,-61.55
GPFAE,Folle-Anse,GP,15.95,-61.3333
GPGRB,Grand-Bourg,GP,15.8833,-61.3
GPJAR,Jarry,GP,16.2333,-61.55
GPGOS,Le Gosier,GP,16.2,-61.4833
GPPTP,Pointe-a-Pitre Apt,GP,16.2667,-61.5167
GPPTL,Port-Louis,GP,16.4167,-61.5333
GPSFC,Saint-Francois,GP,16.25,-61.2667
GPAIF,Baillif,GP,16.033,-61.733
GPBOU,Bouillante,GP,16.133,-61.767
GPDHR,Deshaies,GP,16.3,-61.783
GPFPI,Anse-Bertrand,GP,16.467,-61.517
GPGUS,Gustavia,GP,17.896413,-62.852191
GPPBG,Petit-Bourg,GP,16.183,-61.583
GPSBH,Saint Barthelemy,GP,16.2544056,-61.5323532
GTCHR,Champerico,GT,14.3,-91.9167
GTLIV,Livingston,GT,15.8333,-88.75
GTSTC,Puerto Santo Tomas de Castilla,GT,15.7,-88.6167
GTRIO,Rio Bravo,GT,14.4,-91.3167
GTPBR,Puerto Barrios,GT,15.695364,-88.5855173
GTPRQ,Puerto Quetzal,GT,13.9306292,-90.7580342
GTSNJ,San Jose,GT,13.929767,-90.823653
HNOMO,Omoa,HN,15.7667,-88.0333
HNRTB,Roatan,HN,16.3,-86.55
HNPCA,Puerto Castilla,HN,16.0173268,-85.9585544
HNPCR,Puerto Cortes,HN,15.825072,-87.9285777
HNSLO,San Lorenzo,HN,13.4326204,-87.4554432
HTSMC,Baie de Saint-Marc,HT,19.1167,-72.7
HTCAP,Cap-Haitien,HT,19.75,-72.2
HTCRC,Caracol,HT,19.6833,-72.0167
HTLFT,Lafiteau,HT,18.6833,-72.35
HTPLH,Lafito Port,HT,18.6833,-72.35
HTPEG,Petit Goave,HT,18.4333,-72.8667
HTPAP,Port-au-Prince,HT,18.594395,-72.3074326
JMORC,Oracabessa,JM,18.4,-76.95
JMPHE,Port Henderson,JM,17.95,-76.8833
JMSAW,Saint Ann's Bay,JM,18.4333,-77.2
JMSLM,Savanna-la-Mar,JM,18.164209,-77.947998
JMKIN,Kingston,JM,18.0178743,-76.8099041
JMMBJ,Montego Bay,JM,18.4762228,-77.8938895
KNCHA,Charlestown,KN,17.1333,-62.6167
KNNEV,Nevis,KN,17.15,-62.5833
LCCAS,Castries,LC,14.0167,-60.9667
LCVIF,Vieux Fort,LC,13.720608,-60.9496433
MFGES,Galisbay,MF,18.0667,-63.0833
MFMAR,Marigot,MF,18.0667,-63.0833
MFSXM,St Martin,MF,18.0666667,-63.0666667
MQLER,Le Robert,MQ,14.6667,-60.9333
MQQPC,Port de Fort-de-France Pt.,MQ,14.6,-61.05
MQADA,Les Anses-d'Arlet,MQ,14.483,-61.083
MQFDF,Fort-de-France,MQ,14.6,-61.05
MQPFI,Le Marigot,MQ,14.817,-61.033
MSLTB,Little Bay,MS,16.8,-62.2
MSPLY,Plymouth,MS,16.706523,-62.215738
MXACA,Acapulco,MX,16.85,-99.8667
MXACM,Acolman,MX,19.6167,-98.9167
MXAPR,Agua Prieta,MX,31.3,-109.5667
MXATM,Altamira,MX,22.4,-97.9167
MXATN,Amatitan,MX,20.8333,-103.7167
MXARZ,Arizpe,MX,30.3333,-110.1667
MXBDR,Boca del Rio,MX,19.1167,-96.1167
MXCSL,Cabo San Lucas,MX,22.8833,-109.8833
MXZCA,Cadereyta Jimenez,MX,25.6,-100.0
MXAAO,Camargo,MX,19.4064913,-99.1761432
MXCAT,Cayo Arcas Terminal,MX,19.6833,-92.0833
MXCED,Cedros,MX,28.1167,-115.1667
MXCRI,Cedros Island,MX,28.1667,-115.2167
MXTAB,Chiltepec,MX,18.4167,-93.0833
MXCME,Ciudad del Carmen,MX,18.6333,-91.8333
MXCDD,Ciudad Madero,MX,22.2667,-97.8333
MXRBV,Ciudad Rio Bravo,MX,25.9667,-98.0833
MXCSG,Ciudad Sahagun,MX,19.7667,-98.5667
MXCOA,Coatzacoalcos,MX,18.1333,-94.4
MXCTX,Cotaxtla,MX,18.8333,-96.3833
MXCZM,Cozumel,MX,20.5167,-86.9333
MXCTL,Cuautla,MX,20.2,-104.4
MXDHD,Dolores Hidalgo,MX,21.15,-100.9167
MXDBT,Dos Bocas Terminal,MX,18.5,-93.1833
MXEPM,Empalme,MX,27.9667,-110.8167
MXESE,Ensenada,MX,31.85,-116.6
MXFRN,Frontera,MX,18.5333,-92.6333
MXGET,General Teran,MX,25.2667,-99.6833
MXGRA,Granjas,MX,21.1833,-101.75
MXGSV,Guasave,MX,25.5667,-108.45
MXGYM,Guaymas,MX,27.9167,-110.8833
MXHTO,Huatulco (Santa Maria Huatulco),MX,15.8333,-96.3167
MXHUN,Hunucma,MX,20.9167,-89.8
MXSMI,Isla San Marcos,MX,27.2167,-112.1
MXZIH,Ixtapa/Zihuatanejo,MX,17.6667,-101.65
MXZIP,Ixtapaluca,MX,19.2833,-98.55
MXJDZ,Juchitan de Zaragoza,MX,16.4333,-95.0167
MXLAP,La Paz,MX,24.1333,-110.3
MXLTJ,La Troje,MX,21.7667,-102.5333
MXLZC,Lazaro Cardenas,MX,17.95,-102.1833
MXLTO,Loreto,MX,26.0167,-112.6167
MXMHT,Magdalena/Hostotipaquillo,MX,20.9167,-103.95
MXZLO,Manzanillo,MX,19.05,-104.3
MXMAZ,Mazamitla,MX,19.9167,-103.0333
MXMZT,Mazatlan,MX,23.4,-106.4
MXMID,Merida,MX,20.9667,-89.6167
MXNAU,Nautla,MX,20.2167,-96.7833
MXOBR,Obregon,MX,22.25,-101.2667
MXPIC,Pichilingue,MX,24.3,-110.3167
MXPCM,Playa del Carmen,MX,20.6167,-87.0667
MXPGO,Progreso,MX,21.2667,-89.65
MXPTA,Puerta,MX,23.3667,-106.3333
MXPNG,Puerto Angel,MX,15.6667,-96.4833
MXPMD,Puerto Madero,MX,14.7167,-92.4167
MXPMS,Puerto Morelos,MX,20.8333,-86.8667
MXPVR,Puerto Vallarta,MX,20.6,-105.2167
MXPBJ,Punta Baja,MX,29.9667,-115.8167
MXPVN,Punta Venado,MX,20.5333,-87.15
MXRBG,Rabon Grande/Coatzacoalcos,MX,18.2167,-94.4
MXRST,Rosarito Terminal,MX,32.3333,-117.1
MXSCX,Salina Cruz,MX,16.1667,-95.1833
MXSGX,San Miguel Xoxtla,MX,19.1833,-98.3
MXSN2,Santa Ana,MX,19.6339209,-99.9383091
MXTPX,Santa Cruz Tepexpan,MX,19.5667,-99.7
MXSTT,Santa Teresa,MX,22.4667,-104.7333
MXSEY,Seybaplaya,MX,19.65,-90.7
MXTMP,Tamaulipas,MX,24.9,-107.5833
MXTAM,Tampico,MX,22.25,-97.8667
MXTXH,Telixtlahuaca,MX,17.3,-96.9
MXTEN,Tenabo,MX,20.05,-90.2333
MX4TE,Tepetlixpac,MX,19.0333,-98.8167
MXTIJ,Tijuana,MX,32.5333,-117.0167
MXTJT,Tlalpan,MX,19.2833,-99.1667
MXTPB,Topolobampo,MX,25.6,-109.05
MXTUX,Tuxpan,MX,20.95,-97.4
MXVER,Veracruz,MX,19.2,-96.0833
MXVNR,Villa Nicolas Romero,MX,19.6333,-99.3
MXXAL,Xalostoc,MX,19.5167,-99.0833
MX9AS,Xochimancas,MX,18.7833,-99.1
MXZKP,Zakapu,MX,19.8,-101.8
MXZRZ,Zaragoza,MX,19.7667,-97.5333
MXXIH,Zihuatanejo,MX,17.6333,-101.55
MXPAJ,Pajaritos,MX,18.117,-94.383
MXPUL,Puerto Libertad,MX,29.9,-112.667
MXSLO,San Lorenzo,MX,20.148333,-101.634722
MXSRL,Santa Rosalia,MX,18.4727799,-95.58417
MXTAK,Takuntah,MX,19.75,-91.7
MXTLJ,Tlajomulco de Zuniga,MX,20.4736865,-103.4479314
MXTXC,Tiaxcala,MX,19.383,-98.25
NILM8,Las Maderas,NI,12.4333,-86.0333
NIMAC,Masachapa,NI,11.7833,-86.5167
NIPTI,Potosi,NI,11.494083,-85.8575801
NIPIB,Puerto Isabel,NI,13.3667,-83.5667
NIPSN,Puerto Sandino,NI,12.1833,-86.75
NIRAM,Rama,NI,12.15,-84.2167
NITPA,Tipitapa,NI,12.2,-86.1
NI8LG,Totogalpa,NI,13.5667,-86.5
NICIO,Corinto,NI,12.4907414,-87.1784334
NIPSZ,Puerto Somoza,NI,12.18333,-86.75
PAACO,Ancon,PA,8.9667,-79.55
PAPBM,Bahia Las Minas,PA,9.4,-79.8333
PABAY,Bayano,PA,7.6333,-80.3833
PABCC,Boca Chica,PA,8.2167,-82.2167
PABOC,Bocas del Toro,PA,9.3333,-82.2333
PACZZ,Canazas,PA,8.1333,-80.7
PACHG,Chiriqui Grande,PA,8.95,-82.1167
PACTD,Chitre,PA,7.9667,-80.4333
PAONX,Colon,PA,9.35,-79.8667
PACTB,Cristobal,PA,9.35,-79.9
PAG8L,Gualaca,PA,8.5333,-82.3
PAMEL,Melones,PA,8.8,-79.6
PAPED,Pedregal,PA,9.0968746,-79.4422593
PAPES,Pese,PA,7.9,-80.6167
PAPBE,Portobelo,PA,9.55,-79.65
PAPCA,Puerto Caimito,PA,8.8667,-79.7167
PAGDE,Rio Grande,PA,8.444581,-80.4660256
PAROD,Rodman,PA,8.95,-79.5667
PASCL,Santa Clara,PA,8.3833,-80.1167
PATBG,Taboguilla,PA,8.8,-79.5
PATOC,Tocumen,PA,9.0833,-79.3833
PAVAC,Vacamonte,PA,8.8667,-79.6667
PABLB,Balboa,PA,8.9613962,-79.5631537
PAHER,Herrera,PA,7.833,-80.667
PAMIT,Manzanillo,PA,9.3651477,-79.8811514
PAPRI,Punta Rincon,PA,8.4682123,-82.274624
PAPSA,Rodman,PA,8.95,-79.56667
PMFSP,Saint-Pierre,PM,46.7667,-56.1667
PRARR,Arroyo,PR,17.9667,-66.0667
PRGUX,Guanica,PR,17.9667,-66.9167
PRGUY,Guayanilla,PR,17.9667,-66.8167
PRPJO,Puerto de Jobos,PR,17.95,-66.1833
PRPYA,Puerto Yabucoa,PR,18.05,-65.8333
PRSAL,Salinas,PR,17.9667,-66.25
PRSJU,San Juan,PR,18.45,-66.0833
PRSBS,San Sebastian,PR,18.3,-66.9667
PRSIG,San Juan,PR,18.4663338,-66.1057217
SVAPO,Apopa,SV,13.8,-89.1667
SVSSO,Armenia,SV,13.7457869,-89.4978411
SVLLD,La Libertad,SV,13.4833,-89.3167
SVNCU,Nuevo Cuscatlan,SV,13.6333,-89.25
SVAQJ,Acajutla,SV,13.5957,-89.8270894
SVSAL,San Salvador,SV,13.6929403,-89.2181911
SXMAR,Marigot,SX,18.0667,-63.0667
SXPHI,Philipsburg,SX,18.0167,-63.0333
SXSXM,Sint-Maarten Apt,SX,18.05,-63.1167
TTCRN,Carenage,TT,10.6833,-61.6
TTCHV,Charlotteville,TT,11.3167,-60.55
TTCLA,Claxton Bay,TT,10.35,-61.4667
TTCVA,Couva,TT,10.4167,-61.45
TTGUA,Guayaguayare,TT,10.1333,-61.0333
TTPOS,Port-of-Spain,TT,10.65,-61.5167
TTFPT,Saint Mary's,TT,10.2167,-61.5333
TTFRE,Freeport,TT,10.45,-61.417
TTPTS,Point Lisas,TT,10.4077455,-61.4924377
TTSFE,San Fernando,TT,10.283333,-61.466667
USAEK,Aberdeen,US,33.8167,-88.55
USAB3,Aberdeen,US,40.3833,-74.25
USA8C,Accord,US,42.1667,-70.8833
USDST,Adamston,US,39.2833,-80.35
USIAB,Addison,US,44.6167,-67.75
USDIA,Adrian,US,43.9333,-90.6
USAFK,Afognak,US,58.0,-152.7667
USAF5,Afton,US,41.0167,-94.1833
USAA2,Alabama Pt.,US,30.35,-88.1
USAHU,Alachua,US,29.7833,-82.4833
USYAN,Alanson,US,45.4333,-84.7833
USAL7,Aldie,US,38.9667,-77.6333
USAXR,Alexandria,US,38.8,-77.0333
USAGQ,Algonquin,US,42.1667,-88.3
USEDL,Allendale,US,33.0,-81.3
USATX,Allenstown,US,43.1333,-71.45
USAL3,Alliance,US,31.5167,-93.65
USXAM,Alma,US,44.3167,-91.9167
USAPY,Alpine,US,40.95,-73.9333
USAFA,Alstead,US,43.15,-72.3667
USXAK,Alva,US,36.8,-98.65
USZAD,Alvarado,US,32.4,-97.2
USAMF,Amagansett,US,40.9667,-72.15
USALC,Amelia City,US,30.5833,-81.45
USNKO,Anadarko,US,35.0667,-98.2333
USACQ,Ancram,US,42.05,-73.6333
USAXZ,Andover,US,37.7,-97.1333
USNQH,Annisquam Harbour,US,42.6667,-70.6833
USVFR,Ansonville,US,35.1,-80.1
USYAS,Aransas Pass,US,27.9,-97.15
USIOA,Arion,US,41.95,-95.4667
USAEZ,Armstrong,US,43.3833,-94.4667
USA22,Ashville,US,40.55,-78.5333
USOAX,Asotin,US,46.3333,-117.05
USTHN,Athena,US,45.8,-118.4833
USTBH,Atlantic Beach,US,34.7,-76.7333
USAHZ,Atlantic Highlands,US,40.4,-74.0333
USATR,Atreco,US,29.9667,-93.8667
USVR9,Augusta,US,38.5667,-90.8667
USVAU,Augusta Springs,US,38.1,-79.3167
USYAO,Aurora,US,39.05,-84.9
USAGV,Autaugaville,US,32.4333,-86.65
USAOU,Avalon,US,33.3333,-118.3167
USAV9,Averill Park,US,42.6333,-73.55
USANW,Avon,US,39.6333,-106.5167
USAZL,Azle,US,32.8833,-97.5333
USGAJ,Bagley,US,47.5167,-95.4
USFL8,Bal Harbour,US,25.8833,-80.1167
USLDK,Baldwin,US,29.8333,-91.55
US2BY,Ballston Lake,US,42.9,-73.8667
USBA7,Balmorhea,US,30.9833,-103.7333
USBAL,Baltimore,US,39.2833,-76.6167
USRGA,Baraga,US,46.7833,-88.5
USBG7,Barnegat,US,39.75,-74.2167
USZBP,Bastrop,US,30.1167,-97.3167
USBTH,Bath,US,43.9,-69.8167
USAFH,Bath,US,35.4667,-76.8
USBTR,Baton Rouge,US,30.45,-91.1333
USAFV,Battenville,US,43.1,-73.4333
USBN9,Battle Ground,US,40.5,-86.8333
USYBZ,Bay City,US,44.6,-92.45
USBD3,Beaver Dam,US,37.4,-84.8833
USBI2,Beaver Island,US,45.65,-85.55
USBKO,Becker,US,45.3833,-93.8667
USZGG,Beggs,US,35.75,-96.0667
USYYX,Bel Ridge,US,38.7,-90.3167
USYBD,Belden,US,34.3,-88.7833
USBPV,Belhaven,US,35.5333,-76.6167
USB44,Bellbrook,US,39.6333,-84.0667
USBE8,Belle Harbor,US,40.5667,-73.8333
USEWO,Bellwood,US,40.6,-78.3333
USBNC,Benicia,US,38.05,-122.15
USIJM,Benton City,US,46.25,-119.4833
USBCI,Berlin,US,38.3167,-75.2167
USEIE,Bernie,US,36.6667,-89.9667
US3BR,Berry Creek,US,39.6333,-121.4
USBVV,Berryville,US,36.3667,-93.5667
USRWK,Berwick,US,29.6833,-91.2167
USBBA,Bethany Beach,US,38.5333,-75.05
USEHL,Bethlehem,US,33.9333,-83.7167
USBEX,Bethlehem,US,40.6167,-75.3667
USBCL,Beulaville,US,34.9167,-77.7667
USBSM,Big Sandy,US,36.2347791,-88.0853146
USIGS,Big Stone,US,38.9833,-75.3167
USGQJ,Big Stone City,US,45.2833,-96.45
USBWH,Bigelow,US,35.0,-92.6167
USAFM,Bingham,US,45.0667,-69.8833
USIWO,Birchwood,US,45.6667,-91.55
USXY2,Birmingham,US,41.3167,-82.35
USWO4,Birnamwood,US,44.9333,-89.2
USBDS,Biscoe,US,35.3667,-79.7833
USHWJ,Black Hawk,US,39.7833,-105.4833
USBZZ,Blacklick,US,39.9833,-82.8
USBV6,Blairesville,US,34.85,-83.9333
USLXW,Blawnox,US,40.5,-79.8667
USOOM,Bloomer,US,45.1,-91.4833
USBI8,Blount Island,US,30.4,-81.5167
USLUF,Blue Earth,US,43.6333,-94.1
USBCG,Boca Grande,US,26.7333,-82.25
USDHB,Bodega Bay,US,38.3333,-123.05
USZZB,Bogart,US,33.9333,-83.5333
USB27,Bolinas,US,37.9,-122.6833
USZBI,Bolton Landing,US,43.55,-73.65
USYBG,Bongards,US,44.75,-93.8333
USYBY,Bonifay,US,30.7833,-85.6667
USBF6,Bonners Ferry,US,48.6833,-116.3167
USOYH,Boothbay Harbor,US,43.85,-69.6333
USYTH,Bothell,US,47.75,-122.2
USUSA,Bourbonnais,US,41.15,-87.8833
USTUB,Boutte,US,29.9,-90.3833
USYBN,Boylston,US,42.3833,-71.7
USBYZ,Boyne City,US,45.2167,-85.0
USBRA,Bradwood,US,46.1833,-123.4333
USBHF,Brandon,US,32.2667,-89.9833
USBNP,Brayton Point,US,41.7,-71.1833
USBM4,Brevort,US,46.0167,-85.0333
USBCW,Brewster,US,41.7667,-70.0833
USBFJ,Briarcliff Manor,US,41.15,-73.8167
USBHC,Bridgehampton,US,40.9333,-72.3
